[
  {
    "name": "Birmingham Islamic Society-Weekend Islamic school",
    "address": "2524 Hackberry Ln, Hoover, AL 35226",
    "city": "Hoover",
    "state": "Alabama",
    "zip_code": 35226,
    "country": "United States",
    "phone": "1 205-879-4247",
    "website": "https://www.bisweb.org/wis/",
    "email_primary": "nasim.uddin@bisweb.org",
    "contact_person": "Nasim Uddin",
    "contact_person_role": "President",
    "latitude": 33.4194263,
    "longitude": -86.8147379
  },
  {
    "name": "Islamic Center of Tuscaloosa",
    "address": "1416 Paul W Bryant Dr, Tuscaloosa, AL 35401",
    "city": "Tuscaloosa",
    "state": "Alabama",
    "zip_code": 35401,
    "country": "United States",
    "phone": "1 205 886 0596",
    "website": "https://istuscaloosa.org",
    "email_primary": "support@istuscaloosa.org",
    "contact_person": "",
    "contact_person_role": "",
    "latitude": 33.2068501,
    "longitude": -87.5558584
  },
  {
    "name": "Fahed Al Aoida School",
    "address": "E 80th Ave, Anchorage, AK 99518",
    "city": "Anchorage",
    "state": "Alaska",
    "zip_code": 99518,
    "country": "United States",
    "phone": "907-250-3664",
    "website": "https://alaskamasjid.org/FahedAlAodaSchool.html",
    "email_primary": "alaskamuslimcommunity@yahoo.com",
    "contact_person": "Dali Osmane",
    "contact_person_role": "In Charge",
    "latitude": 61.1483494,
    "longitude": -149.8640232
  },
  {
    "name": "ICNEV LEARNING CENTER - Islamic Center North East Valley",
    "address": "12125 E Vía Linda, Scottsdale, AZ 85259",
    "city": "Chandler",
    "state": "Arizona",
    "zip_code": 85259,
    "country": "United States",
    "phone": "(602) 456-0199",
    "website": "https://islamcenter.com/icnev-learning-center",
    "email_primary": "pr@islamcenter.com",
    "contact_person": "",
    "contact_person_role": "In Charge",
    "latitude": 33.5892363,
    "longitude": -111.8187643
  },
  {
    "name": "Islamic Community Center of Phoenix",
    "address": "7516 N Black Cyn Hwy, Phoenix, AZ 85051",
    "city": "Phoenix",
    "state": "Arizona",
    "zip_code": 8505,
    "country": "United States",
    "phone": "(602) 249-0496",
    "website": "https://iccpaz.com/school/",
    "email_primary": "info@iccpaz.com",
    "contact_person": "",
    "contact_person_role": "",
    "latitude": 33.5465429,
    "longitude": -112.1127951
  },
  {
    "name": "Bentonville Islamic Center",
    "address": "1801 SW 2nd St, Bentonville, AR 72712",
    "city": "Bentonville",
    "state": "Arkansas",
    "zip_code": 72712,
    "country": "United States",
    "phone": "1 (479) 385-6242",
    "website": "https://bic-ar.org/",
    "email_primary": "bicnwa@gmail.com",
    "contact_person": "",
    "contact_person_role": "",
    "latitude": 36.3713189,
    "longitude": -94.2347567
  },
  {
    "name": "Islamic Center of Fort Collins",
    "address": "925 W Lake St, Fort Collins, CO 80521",
    "city": "Fort Collins",
    "state": "Colorado",
    "zip_code": 80521,
    "country": "United States",
    "phone": "1 (970) 221-2425",
    "website": "https://www.icfc.org/",
    "email_primary": "info@icfc.org",
    "contact_person": "",
    "contact_person_role": "",
    "latitude": 40.5684445,
    "longitude": -105.0944398
  },
  {
    "name": "South Denver Islamic Center",
    "address": "Greenwood Village, CO 80155",
    "city": "Green Wood",
    "state": "Colorado",
    "zip_code": 80155,
    "country": "United States",
    "phone": "720-772-7342",
    "website": "https://www.khadeejah.org/",
    "email_primary": "",
    "contact_person": "Mohammad Waseem Khan",
    "contact_person_role": "President",
    "latitude": 39.5969612,
    "longitude": -104.8603104
  },
  {
    "name": "Cresent View Academy",
    "address": "10958 E Bethany Dr, Aurora, CO 80014",
    "city": "Aurora",
    "state": "Colorado",
    "zip_code": 80014,
    "country": "United States",
    "phone": "(303) 745-2245",
    "website": "http://crescentview.org/",
    "email_primary": "info@crescentview.org",
    "contact_person": "Iyad Wazwaz",
    "contact_person_role": "Principal",
    "latitude": 39.6628965,
    "longitude": -104.8608766
  },
  {
    "name": "Metropolitan Denver North Islamic Center",
    "address": "11141 Irma Dr, Northglenn, CO 80233",
    "city": "Northglenn",
    "state": "Colorado",
    "zip_code": 80233,
    "country": "United States",
    "phone": "303-920-0252",
    "website": "www.masjidikhlas.org",
    "email_primary": "ikhlasacademy@masjidikhlas.org",
    "contact_person": "",
    "contact_person_role": "",
    "latitude": 39.8982844,
    "longitude": -104.966958
  },
  {
    "name": "Quba Masjid",
    "address": "Hayes, UK",
    "city": "Alameda",
    "state": "California",
    "zip_code": 94550,
    "country": "United States",
    "phone": "44(0) 208 150 9299",
    "website": "https://www.qubamasjid.com/qubamadrasah/",
    "email_primary": "info@qubamasjid.com",
    "contact_person": "",
    "contact_person_role": "",
    "latitude": 51.516758,
    "longitude": -0.436786
  },
  {
    "name": "Masjid Al Taqwa",
    "address": "2181 Lake Ave, Altadena, CA 91001",
    "city": "Altadena",
    "state": "California",
    "zip_code": 91001,
    "country": "United States",
    "phone": "310-904-9288",
    "website": "http://altaqwamasjid.com/",
    "email_primary": "milakhani21@yahoo.com",
    "contact_person": "Br. Mohammad Iqbal Lakhani",
    "contact_person_role": "In Charge",
    "latitude": 34.1833803,
    "longitude": -118.1318577
  },
  {
    "name": "The Islamic Shoura Council of Bakersfield",
    "address": "701 Ming Ave #146, Bakersfield, CA 93307",
    "city": "Bakersfield",
    "state": "California",
    "zip_code": 93307,
    "country": "United States",
    "phone": "661-303-1543",
    "website": "http://www.iscob.org/school.html",
    "email_primary": "info@iscob.org",
    "contact_person": "",
    "contact_person_role": "",
    "latitude": 35.3392281,
    "longitude": -119.0101214
  },
  {
    "name": "Al-Iman Sunday School (Yassen Foundation)",
    "address": "1722 Gilbreth Rd, Burlingame, CA 94010",
    "city": "Belmont",
    "state": "California",
    "zip_code": 94002,
    "country": "United States",
    "phone": "650-797-0681",
    "website": "https://www.yaseen.org/programs/al-iman-school",
    "email_primary": "principal@alimanislamicschool.org",
    "contact_person": "",
    "contact_person_role": "Principal",
    "latitude": 37.599325,
    "longitude": -122.3740648
  },
  {
    "name": "Brentwood Muslim Community Center - (Weekend School)",
    "address": "7701 Lone Tree Wy, Brentwood, CA 94513",
    "city": "Brentwood",
    "state": "California",
    "zip_code": 94513,
    "country": "United States",
    "phone": "925-298-2622",
    "website": "https://brmcc.org/#",
    "email_primary": "info@brmcc.org",
    "contact_person": "Fahim Choudhary",
    "contact_person_role": "In Charge",
    "latitude": 37.9612158,
    "longitude": -121.7105947
  },
  {
    "name": "Hikmah School (Brentwood Muslim Community Center)",
    "address": "7701 Lone Tree Wy, Brentwood, CA 94513",
    "city": "Brentwood",
    "state": "California",
    "zip_code": 94513,
    "country": "United States",
    "phone": "925-298-2622",
    "website": "https://hikmahschool.com/",
    "email_primary": "info@hikmahschool.com",
    "contact_person": "Fahim Choudhary",
    "contact_person_role": "In Charge",
    "latitude": 37.9612158,
    "longitude": -121.7105947
  },
  {
    "name": "Prime Years Academy",
    "address": "495 Santana Way, Corona, CA 92881",
    "city": "Corona",
    "state": "California",
    "zip_code": 92881,
    "country": "United States",
    "phone": "951-561-3643",
    "website": "https://www.primeyearsacademy.com",
    "email_primary": "director.primeyears@yahoo.com",
    "contact_person": "",
    "contact_person_role": "",
    "latitude": 33.8511327,
    "longitude": -117.5618038
  },
  {
    "name": "ISCN Learning Center",
    "address": "495 Santana Way, Corona, CA 92881",
    "city": "Corona",
    "state": "California",
    "zip_code": 92881,
    "country": "United States",
    "phone": "951-264-6739",
    "website": "https://www.tlc-corona.org/",
    "email_primary": "schooldirector.tlc@gmail.com​",
    "contact_person": "Ms. Aniqa Janjua",
    "contact_person_role": "School Director & Principal",
    "latitude": 33.8511327,
    "longitude": -117.5618038
  },
  {
    "name": "Islamic Society of Folsom",
    "address": "1835 Prairie City Rd, Folsom, CA 95630",
    "city": "Folsom",
    "state": "California",
    "zip_code": 95630,
    "country": "United States",
    "phone": "(916)294-3047",
    "website": "http://masjidbilal.com",
    "email_primary": "",
    "contact_person": "Dr. Dale Hamad",
    "contact_person_role": "In Charge",
    "latitude": 38.6523393,
    "longitude": -121.1656249
  },
  {
    "name": "Sunday Islamic School of Fremont",
    "address": "42412 Albrae St, Fremont, CA 94538",
    "city": "Fremont",
    "state": "California",
    "zip_code": 94538,
    "country": "United States",
    "phone": "408-309-3798",
    "website": "https://sites.google.com/sisfonline.com/home/",
    "email_primary": "imtiaz622@gmail.com",
    "contact_person": "Mr. Imtiaz",
    "contact_person_role": "Principal",
    "latitude": 37.5093342,
    "longitude": -121.9718158
  },
  {
    "name": "Masjid Fresno Islamic Center",
    "address": "2111 E Shaw Ave, Fresno, CA 93710",
    "city": "Fresno",
    "state": "California",
    "zip_code": 93710,
    "country": "United States",
    "phone": "559-222-6686",
    "website": "https://www.masjidfresno.org/",
    "email_primary": "sheikhramadan@gmail.com",
    "contact_person": "Seikh Ramadan",
    "contact_person_role": "Imam",
    "latitude": 36.808313,
    "longitude": -119.7517292
  },
  {
    "name": "Masjid Madera",
    "address": "16634 Rd 26, Madera, CA 93638",
    "city": "Madera",
    "state": "California",
    "zip_code": 93638,
    "country": "United States",
    "phone": "(559) 885-3400",
    "website": "http://www.masjidmadera.com",
    "email_primary": "masjidmadera@gmail.com",
    "contact_person": "Abdullah",
    "contact_person_role": "In Charge",
    "latitude": 36.9910784,
    "longitude": -120.0746963
  },
  {
    "name": "Masjid Darus Salam",
    "address": "374 Turquoise St, Milpitas, CA 95035",
    "city": "Milpitas",
    "state": "California",
    "zip_code": 95035,
    "country": "United States",
    "phone": "408-786-9658",
    "website": "https://alhilaal.org",
    "email_primary": "info@alhilaal.org",
    "contact_person": "",
    "contact_person_role": "",
    "latitude": 37.42669,
    "longitude": -121.8961936
  },
  {
    "name": "Al Nur Islamic Center",
    "address": "Palo Verde professional building, 4959 Palo Verde St 205 c, Montclair, CA 91763",
    "city": "Montclair",
    "state": "California",
    "zip_code": 91763,
    "country": "United States",
    "phone": "626-378-8156",
    "website": "https://www.alnuric.org/",
    "email_primary": "admin@alnooric.org",
    "contact_person": "",
    "contact_person_role": "",
    "latitude": 34.0809153,
    "longitude": -117.6967865
  },
  {
    "name": "Islamic Center of Ventura County",
    "address": "271 Riverpark Blvd, Oxnard, CA 93036",
    "city": "Oxnard",
    "state": "California",
    "zip_code": 93036,
    "country": "United States",
    "phone": "805-427-2081",
    "website": "https://icovc.org/classes/",
    "email_primary": "hasnatsaleh@ yahoo.com",
    "contact_person": "Br. Abul Saleh",
    "contact_person_role": "Coordinator",
    "latitude": 34.2348802,
    "longitude": -119.1740305
  },
  {
    "name": "Ahlul Beyt Mosque",
    "address": "2155 Murchison Ave, Pomona, CA 91768",
    "city": "Pomona",
    "state": "California",
    "zip_code": 91768,
    "country": "United States",
    "phone": "909-622-9158",
    "website": "https://www.ahlulbeyt.net/ahlul-beyt-school/",
    "email_primary": "",
    "contact_person": "",
    "contact_person_role": "",
    "latitude": 34.0717853,
    "longitude": -117.7901775
  },
  {
    "name": "Islamic Center of South Bay",
    "address": "25816 Walnut St, Lomita, CA 90717",
    "city": "Lomita",
    "state": "California",
    "zip_code": 90717,
    "country": "United States",
    "phone": "(310) 534-1363",
    "website": "https://masjidalnoor.org/alnoor-islamic-weekend-school/",
    "email_primary": "imamanas@masjidalnoor.org",
    "contact_person": "Qari Anas Daghameen",
    "contact_person_role": "Imam",
    "latitude": 33.788886,
    "longitude": -118.311697
  },
  {
    "name": "Masjid Annur Islamic Center",
    "address": "6990 65th St, Sacramento, CA 95823",
    "city": "Sacramento",
    "state": "California",
    "zip_code": 95828,
    "country": "United States",
    "phone": "(916) 392 6687",
    "website": "https://www.masjidannur.com/services/annur-sunday-school",
    "email_primary": "EducationDirector@masjidannur.com",
    "contact_person": "",
    "contact_person_role": "",
    "latitude": 38.499308,
    "longitude": -121.4380799
  },
  {
    "name": "Islamic Center od San Francisco",
    "address": "400 Crescent Ave, San Francisco, CA 94110",
    "city": "Sanfrancisco",
    "state": "California",
    "zip_code": 94110,
    "country": "United States",
    "phone": "415.624.3754",
    "website": "https://www.icofsf.org",
    "email_primary": "icofsf@gmail.com",
    "contact_person": "",
    "contact_person_role": "",
    "latitude": 37.7347493,
    "longitude": -122.4167073
  },
  {
    "name": "Noor Al Islam School (Masjid Noor Al Islam)",
    "address": "118 Jones St, San Francisco, CA 94102",
    "city": "San Francisco",
    "state": "California",
    "zip_code": 94102,
    "country": "United States",
    "phone": "(415) 292-9709",
    "website": "https://www.alsabeel.org/",
    "email_primary": "alsabeel@alsabeel.org",
    "contact_person": "",
    "contact_person_role": "",
    "latitude": 37.7824221,
    "longitude": -122.4120614
  },
  {
    "name": "Mosque of San Gabriel",
    "address": "1301 E Las Tunas Dr, San Gabriel, CA 91776",
    "city": "San Gabriel",
    "state": "California",
    "zip_code": 91775,
    "country": "United States",
    "phone": "(626) 285-2697",
    "website": "https://www.masjidgibrael.org/sunday-school/",
    "email_primary": "masjidgibrael1301@gmail.com",
    "contact_person": "",
    "contact_person_role": "",
    "latitude": 34.1040863,
    "longitude": -118.0793922
  },
  {
    "name": "Alqarawiyyeen Schools (Blossom Valley Muslim Community Center)",
    "address": "5885 Santa Teresa Blvd #113, San Jose, CA 95123",
    "city": "San Jose",
    "state": "California",
    "zip_code": 95123,
    "country": "United States",
    "phone": "408-588-1717",
    "website": "https://www.bvmcc.org",
    "email_primary": "Info@alqarawiyyeenschools.com",
    "contact_person": "",
    "contact_person_role": "School",
    "latitude": 37.2358679,
    "longitude": -121.8317751
  },
  {
    "name": "South Bay Islamic Association",
    "address": "2345 Harris Way, San Jose, CA 95131",
    "city": "San Jose",
    "state": "California",
    "zip_code": 95131,
    "country": "United States",
    "phone": "",
    "website": "https://sbia.info/",
    "email_primary": "sbiais@sbia.info",
    "contact_person": "",
    "contact_person_role": "School",
    "latitude": 37.4029415,
    "longitude": -121.9052798
  },
  {
    "name": "South Valley Islamic Center",
    "address": "40 E 4th St, Morgan Hill, CA 95037",
    "city": "Morgan Hill",
    "state": "California",
    "zip_code": 95037,
    "country": "United States",
    "phone": "",
    "website": "https://svic.org/islamic-school/",
    "email_primary": "svic@svic.org",
    "contact_person": "",
    "contact_person_role": "",
    "latitude": 37.1274108,
    "longitude": -121.6508407
  },
  {
    "name": "Imammia Education Center",
    "address": "Santa Ana, CA 92705",
    "city": "Santa Ana",
    "state": "California",
    "zip_code": 92705,
    "country": "United States",
    "phone": "(714) 524-5580",
    "website": "https://www.imamia.org",
    "email_primary": "aamithani@yahoo.com",
    "contact_person": "",
    "contact_person_role": "",
    "latitude": 33.7532358,
    "longitude": -117.7901088
  },
  {
    "name": "Islamic Society of Santa Barbara",
    "address": "302 N Los Carneros Rd, Goleta, CA 93117",
    "city": "Goleta",
    "state": "California",
    "zip_code": 93117,
    "country": "United States",
    "phone": "805-317-4277",
    "website": "https://islamsb.org/take-a-class/",
    "email_primary": "contactissb@gmail.com",
    "contact_person": "",
    "contact_person_role": "",
    "latitude": 34.4405145,
    "longitude": -119.8524553
  },
  {
    "name": "Islamic Center of Temecula Valley",
    "address": "31061 Nicolas Rd, Temecula, CA 92591",
    "city": "Temecula",
    "state": "California",
    "zip_code": 92591,
    "country": "United States",
    "phone": "(888) 232-2288",
    "website": "https://icotv.org/",
    "email_primary": "education@icotv.org",
    "contact_person": "Br. Bahjat Akari",
    "contact_person_role": "Education Comitee Chairperson",
    "latitude": 33.541633,
    "longitude": -117.1171539
  },
  {
    "name": "Jafaria Islamic Society",
    "address": "1546 E La Palma Ave, Anaheim, CA 92805",
    "city": "Anaheim",
    "state": "California",
    "zip_code": 92805,
    "country": "United States",
    "phone": "323-854-6122",
    "website": "https://jafaria.org/school/",
    "email_primary": "info@jafaria.org",
    "contact_person": "Musawir Jafri",
    "contact_person_role": "",
    "latitude": 33.8469865,
    "longitude": -117.8956438
  },
  {
    "name": "Darul Falah Islamic Center",
    "address": "14712 Bentley Cir, Tustin, CA 92780",
    "city": "Tustin",
    "state": "California",
    "zip_code": 92780,
    "country": "United States",
    "phone": "949-466-2740",
    "website": "https://tustinmasjid.com/",
    "email_primary": "dufprograms@gmail.com",
    "contact_person": "",
    "contact_person_role": "",
    "latitude": 33.7140841,
    "longitude": -117.8071921
  },
  {
    "name": "Islamic Community of Slinas",
    "address": "35 W Market St, Salinas, CA 93901",
    "city": "Salinas",
    "state": "California",
    "zip_code": 93901,
    "country": "United States",
    "phone": "831-272-4885",
    "website": "https://www.icsalinas.org/school",
    "email_primary": "imam@icsalinas.org",
    "contact_person": "",
    "contact_person_role": "",
    "latitude": 36.6778255,
    "longitude": -121.6570651
  },
  {
    "name": "Bridgeport Islamic Community Center",
    "address": "703 State St, Bridgeport, CT 06604",
    "city": "Bridgeport",
    "state": "Connecticut",
    "zip_code": 6604,
    "country": "United States",
    "phone": "(203)870-1729",
    "website": "https://www.mybicc.org/",
    "email_primary": "education@mybicc.org",
    "contact_person": "",
    "contact_person_role": "",
    "latitude": 41.1736787,
    "longitude": -73.1981604
  },
  {
    "name": "Clara Muhammad School (Muhammad Islamic Center of Greater Hartford)",
    "address": "155 Hungerford St, Hartford, CT 06106",
    "city": "hartford",
    "state": "Connecticut",
    "zip_code": 6106,
    "country": "United States",
    "phone": "(860) 728 8646",
    "website": "https://micgh.org",
    "email_primary": "taqwanct@aol.com",
    "contact_person": "",
    "contact_person_role": "",
    "latitude": 41.7590712,
    "longitude": -72.6860465
  },
  {
    "name": "Islamic Center of Conneticut",
    "address": "140 White Rock Dr, Windsor, CT 06095",
    "city": "Windsor",
    "state": "Connecticut",
    "zip_code": 6095,
    "country": "United States",
    "phone": "1-844-623-4621",
    "website": "http://icct.org/sunday-school/",
    "email_primary": "sundayschool@icct.org",
    "contact_person": "Muhammad Suleiman",
    "contact_person_role": "Principal",
    "latitude": 41.8117101,
    "longitude": -72.6713356
  },
  {
    "name": "The Islamic Association of Central Connecticut",
    "address": "100 Arch St, New Britain, CT 06051",
    "city": "New Britain",
    "state": "Connecticut",
    "zip_code": 6051,
    "country": "United States",
    "phone": "1 860-348-5733",
    "website": "https://taqwact.org/services/weekend-school/",
    "email_primary": "info@taqwact.org",
    "contact_person": "",
    "contact_person_role": "",
    "latitude": 41.6642736,
    "longitude": -72.7819811
  },
  {
    "name": "Stamford Islamic Center",
    "address": "379 West Ave, Stamford, CT 06902",
    "city": "Stamform",
    "state": "Connecticut",
    "zip_code": 6902,
    "country": "United States",
    "phone": "203-504-2800",
    "website": "http://stamfordislamiccenter.com",
    "email_primary": "info@stamfordislamiccenter.com",
    "contact_person": "",
    "contact_person_role": "",
    "latitude": 41.0408968,
    "longitude": -73.5593668
  },
  {
    "name": "Masjid Al Mustafa",
    "address": "95 Schraffts Dr, Waterbury, CT 06705",
    "city": "Waterbury",
    "state": "Connecticut",
    "zip_code": 6705,
    "country": "United States",
    "phone": "(203) 597-7676",
    "website": "https://www.iasconnect.org",
    "email_primary": "masjid_almustafa@att.net",
    "contact_person": "",
    "contact_person_role": "",
    "latitude": 41.541141,
    "longitude": -72.990686
  },
  {
    "name": "New Haven Islamic Center",
    "address": "254 Bull Hill Ln, Orange, CT 06477",
    "city": "Orange",
    "state": "Connecticut",
    "zip_code": 6577,
    "country": "United States",
    "phone": "203-933-5799",
    "website": "https://www.nhicct.org/",
    "email_primary": "info@nhicct.org",
    "contact_person": "",
    "contact_person_role": "",
    "latitude": 41.2737505,
    "longitude": -72.9884464
  },
  {
    "name": "Childern Educational Program (Islamic Society of Central Delawere)",
    "address": "777 S Little Creek Rd, Dover, DE 19901",
    "city": "Dover",
    "state": "Delawere",
    "zip_code": 19901,
    "country": "United States",
    "phone": "302-943-3659",
    "website": "https://cepdelaware.com/",
    "email_primary": "cep.delaware@gmail.com",
    "contact_person": "Muniza Iftekhar",
    "contact_person_role": "Incharge",
    "latitude": 39.1590089,
    "longitude": -75.5067875
  },
  {
    "name": "Islamic Center of Boca Raton",
    "address": "3480 NW 5th Ave, Boca Raton, FL 33431",
    "city": "Boca Raton",
    "state": "Florida",
    "zip_code": 33431,
    "country": "United States",
    "phone": "561-395-7221",
    "website": "https://icbr.org/",
    "email_primary": "masjid@icbr.org",
    "contact_person": "",
    "contact_person_role": "",
    "latitude": 26.381179,
    "longitude": -80.0929755
  },
  {
    "name": "The Islamic Center of Daytona Beach",
    "address": "347 S Keech St, Daytona Beach, FL 32114",
    "city": "Daytona Beach",
    "state": "Florida",
    "zip_code": 32114,
    "country": "United States",
    "phone": "(386) 252-3501",
    "website": "https://ic-db.weebly.com/",
    "email_primary": "",
    "contact_person": "Administrator",
    "contact_person_role": "",
    "latitude": 29.2005636,
    "longitude": -81.0343569
  },
  {
    "name": "Islamic Society of Central Florida",
    "address": "1586 N Goldenrod Rd, Orlando, FL 32807",
    "city": "Orlando",
    "state": "Florida",
    "zip_code": 32802,
    "country": "United States",
    "phone": "407-273-8363",
    "website": "https://iscf.org/education/wize/",
    "email_primary": "",
    "contact_person": "",
    "contact_person_role": "",
    "latitude": 28.5649273,
    "longitude": -81.2864005
  },
  {
    "name": "Islamic Movement of Florida",
    "address": "3201 N 74th Way, Pembroke Pines, FL 33024",
    "city": "Hollywood",
    "state": "Florida",
    "zip_code": 33024,
    "country": "United States",
    "phone": "(954) 894-9110",
    "website": "https://www.imof.org/",
    "email_primary": "info@imof.org",
    "contact_person": "",
    "contact_person_role": "",
    "latitude": 26.0300561,
    "longitude": -80.2377141
  },
  {
    "name": "Masjid As-Sunnah",
    "address": "1535 S Hoagland Blvd, Kissimmee, FL 34741",
    "city": "Kissimmee",
    "state": "Florida",
    "zip_code": 34746,
    "country": "United States",
    "phone": "407-935-0337",
    "website": "https://masjidassunnah-fl.com/",
    "email_primary": "webmaster@masjidassunnah-fl.com",
    "contact_person": "",
    "contact_person_role": "",
    "latitude": 28.2639774,
    "longitude": -81.4357119
  },
  {
    "name": "Islamic Sunday School at Islamic Center of Greater Miami",
    "address": "4305 NW 183rd St, Miami Gardens, FL 33055",
    "city": "Miami Gardens",
    "state": "Florida",
    "zip_code": 33055,
    "country": "United States",
    "phone": "(305) 624‑5555",
    "website": "https://www.sundayschoolaticgm.com/",
    "email_primary": "sundayschool.icgm@gmail.com",
    "contact_person": "",
    "contact_person_role": "",
    "latitude": 25.9408164,
    "longitude": -80.2718992
  },
  {
    "name": "Islamic Center of Orange park",
    "address": "158 College Dr, Orange Park, FL 32065",
    "city": "Orange Park",
    "state": "Florida",
    "zip_code": 32065,
    "country": "United States",
    "phone": "(904) 330 4847",
    "website": "https://icopfl.org/",
    "email_primary": "icopfl786@gmail.com",
    "contact_person": "",
    "contact_person_role": "",
    "latitude": 30.1276717,
    "longitude": -81.7757756
  },
  {
    "name": "Islamic Society of Pinellas County",
    "address": "Pinellas Park, FL 33780",
    "city": "Pinellas Park",
    "state": "Florida",
    "zip_code": 33780,
    "country": "United States",
    "phone": "1 727-546-3162",
    "website": "https://ispc-fl.org/",
    "email_primary": "info@ispc-fl.org",
    "contact_person": "",
    "contact_person_role": "",
    "latitude": 27.8428057,
    "longitude": -82.7055625
  },
  {
    "name": "Masjid Al Sunnah",
    "address": "2400 6th St S, St. Petersburg, FL 33705",
    "city": "St. Petesburg",
    "state": "Florida",
    "zip_code": 33705,
    "country": "United States",
    "phone": "727 288 3636",
    "website": "https://isspmosque.com/",
    "email_primary": "Info@arqamsacademy.com",
    "contact_person": "",
    "contact_person_role": "",
    "latitude": 27.7462998,
    "longitude": -82.6399307
  },
  {
    "name": "Islamic Foundation of South Florida",
    "address": "5455 NW 108th Ave, Sunrise, FL 33351",
    "city": "Sunrise",
    "state": "Florida",
    "zip_code": 33351,
    "country": "United States",
    "phone": "(954) 213-8897",
    "website": "https://ifsf.net/",
    "email_primary": "",
    "contact_person": "",
    "contact_person_role": "",
    "latitude": 26.190879,
    "longitude": -80.2940936
  },
  {
    "name": "Muslim Community of Palm Beach County",
    "address": "4893 Purdy Ln, West Palm Beach, FL 33415",
    "city": "West Paml Beach",
    "state": "Florida",
    "zip_code": 33415,
    "country": "United States",
    "phone": "561-969-1584",
    "website": "https://mcpbc.org/",
    "email_primary": "imam@mcpbc.org",
    "contact_person": "Imam",
    "contact_person_role": "",
    "latitude": 26.6449815,
    "longitude": -80.119384
  },
  {
    "name": "Hamza Islamic Center",
    "address": "665 Tidwell Rd, Alpharetta, GA 30004",
    "city": "Alpharetta",
    "state": "Georgia",
    "zip_code": 30004,
    "country": "United States",
    "phone": "(770) 558-3519",
    "website": "https://www.masjidhamzah.com/",
    "email_primary": "GeneralSecretary@masjidhamzah.com",
    "contact_person": "Umar Mohamed Ibrahim",
    "contact_person_role": "General Secretary",
    "latitude": 34.1173535,
    "longitude": -84.2485897
  },
  {
    "name": "Masjid Al-Taqwa",
    "address": "2680 Golfside Rd, Ann Arbor, MI 48108",
    "city": "Ann Arbor",
    "state": "Michigan",
    "zip_code": 48108,
    "country": "United States",
    "phone": "(734)-829-8380",
    "website": "https://masjidattaqwa.org/",
    "email_primary": "Masjidattaqwaaa@gmail.com",
    "contact_person": "Seikh Ahmed",
    "contact_person_role": "In Charge",
    "latitude": 42.2491593,
    "longitude": -83.6613463
  },
  {
    "name": "Dar-un-Noor Sunday School",
    "address": "434 14th St NW, Atlanta, GA 30318",
    "city": "Atlanta",
    "state": "Georgia",
    "zip_code": 30318,
    "country": "United States",
    "phone": "404-454-5500",
    "website": "https://dunsundayschool.wordpress.com/",
    "email_primary": "dunsundayschool@yahoo.com",
    "contact_person": "Principal",
    "contact_person_role": "",
    "latitude": 33.7852811,
    "longitude": -84.4014297
  },
  {
    "name": "Masjid Quba",
    "address": "at Texaco, 5698 Hwy 20 SE, Cartersville, GA 30121",
    "city": "CARTERSVILLE",
    "state": "Georgia",
    "zip_code": 30121,
    "country": "United States",
    "phone": "678-719-9770",
    "website": "http://iccga.org/",
    "email_primary": "nfo@iccga.org",
    "contact_person": "",
    "contact_person_role": "",
    "latitude": 34.2097593,
    "longitude": -84.7585675
  },
  {
    "name": "Dar-E-Abbas",
    "address": "5064 Lawrenceville Hwy, Lilburn, GA 30047",
    "city": "Lilburn",
    "state": "Georgia",
    "zip_code": 30047,
    "country": "United States",
    "phone": "(404) 277-5295",
    "website": "http://dareabbas.com/",
    "email_primary": "",
    "contact_person": "Masoud Naqvi",
    "contact_person_role": "Principal",
    "latitude": 33.8889005,
    "longitude": -84.1483832
  },
  {
    "name": "Masjid Omar",
    "address": "955 Harbins Rd NW, Lilburn, GA 30047",
    "city": "Lilburn",
    "state": "Georgia",
    "zip_code": 30047,
    "country": "United States",
    "phone": "404-955-0625",
    "website": "https://masjidomar.org/",
    "email_primary": "info@masjidomar.org",
    "contact_person": "Sister Noor",
    "contact_person_role": "",
    "latitude": 33.8990973,
    "longitude": -84.1700968
  },
  {
    "name": "East Cobb Islamic Center",
    "address": "1111 Braswell Rd, Marietta, GA 30062",
    "city": "Marietta",
    "state": "Georgia",
    "zip_code": 30062,
    "country": "United States",
    "phone": "(678) 528-1414",
    "website": "https://www.ec-ic.org/",
    "email_primary": "info@ec-ic.org",
    "contact_person": "",
    "contact_person_role": "",
    "latitude": 33.9785234,
    "longitude": -84.486962
  },
  {
    "name": "Masjid-Ibad-Ur- Rahman",
    "address": "2440 Sandy Plains Rd Building #15, Marietta, GA 30066",
    "city": "Marietta",
    "state": "Georgia",
    "zip_code": 30066,
    "country": "United States",
    "phone": "678-560-3398",
    "website": "https://www.ibad-ur-rahman.org/",
    "email_primary": "masjid@ibad-ur-rahman.org",
    "contact_person": "",
    "contact_person_role": "",
    "latitude": 34.0090483,
    "longitude": -84.4949945
  },
  {
    "name": "Roswell Community Masjid",
    "address": "345 Market Pl, Roswell, GA 30075",
    "city": "Roswell",
    "state": "Georgia",
    "zip_code": 30075,
    "country": "United States",
    "phone": "770-640-1411",
    "website": "https://roswellmasjid.org/",
    "email_primary": "info@roswellmasjid.org",
    "contact_person": "",
    "contact_person_role": "",
    "latitude": 34.0304729,
    "longitude": -84.3401958
  },
  {
    "name": "Anniston Islamic Center",
    "address": "Anniston, AL 36207",
    "city": "Anniston",
    "state": "Alabama",
    "zip_code": 36207,
    "country": "United States",
    "phone": "256-238-8613",
    "website": "https://annistonic.org/",
    "email_primary": "",
    "contact_person": "Dr. Khurram Fareed",
    "contact_person_role": "President",
    "latitude": 33.656468,
    "longitude": -85.7461548
  },
  {
    "name": "Homewood Masjid | BIS",
    "address": "1810 25th Ct S, Birmingham, AL 35209",
    "city": "Homewood",
    "state": "Alabama",
    "zip_code": 35209,
    "country": "United States",
    "phone": "205-879-4247",
    "website": "https://www.bisweb.org/",
    "email_primary": "bisoffice@bisweb.org",
    "contact_person": "",
    "contact_person_role": "",
    "latitude": 33.4866824,
    "longitude": -86.7912631
  },
  {
    "name": "Huntsville Islamic Center",
    "address": "1645 Sparkman Dr NW, Huntsville, AL 35816",
    "city": "Huntsville",
    "state": "Alabama",
    "zip_code": 35816,
    "country": "United States",
    "phone": "256-721-1712",
    "website": "https://huntsvilleislamiccenter.org/",
    "email_primary": "board@huntsvilleislamiccenter.org",
    "contact_person": "",
    "contact_person_role": "",
    "latitude": 34.7426918,
    "longitude": -86.6484852
  },
  {
    "name": "American Islamic Center of Mobile",
    "address": "6702 Old Shell Rd, Mobile, AL 36608",
    "city": "Mobile",
    "state": "Alabama",
    "zip_code": 36608,
    "country": "United States",
    "phone": "251-366-5000",
    "website": "https://mobilemosque.com/",
    "email_primary": "AICOFMOBILE@gmail.com",
    "contact_person": "",
    "contact_person_role": "",
    "latitude": 30.691428,
    "longitude": -88.1982207
  },
  {
    "name": "Muslim Center of Montgomery",
    "address": "Montgomery, AL 36105",
    "city": "Montgomery",
    "state": "Alabama",
    "zip_code": 36105,
    "country": "United States",
    "phone": "334-312-7872",
    "website": "https://www.mcmontgomery.org/",
    "email_primary": "muslimcenterofmontgomery@gmail.com",
    "contact_person": "",
    "contact_person_role": "",
    "latitude": 32.2334312,
    "longitude": -86.2767995
  },
  {
    "name": "Al-Huda Islamic Center",
    "address": "10 Cayuga Vista Dr #0, Lansing, NY 14882",
    "city": "Lansing",
    "state": "New York",
    "zip_code": 14882,
    "country": "United States",
    "phone": "607-533-0357",
    "website": "https://alhudaislamiccenter.org/",
    "email_primary": "contactus@alhudaislamiccenter.org",
    "contact_person": "Mahmud Burton",
    "contact_person_role": "President",
    "latitude": 42.5337865,
    "longitude": -76.501205
  },
  {
    "name": "Islamic Society of Tuscaloosa",
    "address": "416 Paul W Bryant Dr, Tuscaloosa, AL 35401",
    "city": "Tuscaloosa",
    "state": "Alabama",
    "zip_code": 35401,
    "country": "United States",
    "phone": "205-758-3382",
    "website": "https://istuscaloosa.org/",
    "email_primary": "support@istuscalosa.org",
    "contact_person": "",
    "contact_person_role": "",
    "latitude": 33.205591,
    "longitude": -87.5308342
  },
  {
    "name": "The Islamic Community Of Anchorage Alaska",
    "address": "8005 Spring St, Anchorage, AK 99518",
    "city": "Anchorage",
    "state": "Alaska",
    "zip_code": 99518,
    "country": "United States",
    "phone": "907-248-7333",
    "website": "https://alaskamasjid.org/",
    "email_primary": "alaskamuslimcommunity@yahoo.com",
    "contact_person": "",
    "contact_person_role": "",
    "latitude": 61.1481726,
    "longitude": -149.8611941
  },
  {
    "name": "Islamic Center of the East Valley",
    "address": "425 N Alma School Rd, Chandler, AZ 85225",
    "city": "Chadler",
    "state": "Arizona",
    "zip_code": 85224,
    "country": "United States",
    "phone": "480-910-0330",
    "website": "https://icev.org/",
    "email_primary": "info@icevmasjid.org",
    "contact_person": "",
    "contact_person_role": "",
    "latitude": 33.3109777,
    "longitude": -111.8576207
  },
  {
    "name": "Islamic Center of Laveen",
    "address": "5099 W Dobbins Rd #1, Laveen Village, AZ 85339",
    "city": "Laveen Village",
    "state": "Arizona",
    "zip_code": 85339,
    "country": "United States",
    "phone": "602-237-2666",
    "website": "https://www.islamiccenteroflaveen.org/",
    "email_primary": "secretary@iclaveen.net",
    "contact_person": "",
    "contact_person_role": "",
    "latitude": 33.3620193,
    "longitude": -112.168722
  },
  {
    "name": "Masjid Bilal IBN Rabah",
    "address": "44370 W Cesar Chavez Ln, Maricopa, AZ 85138",
    "city": "Maricopa",
    "state": "Arizona",
    "zip_code": 85138,
    "country": "United States",
    "phone": "480-582-9993",
    "website": "https://masjidbilalaz.org/",
    "email_primary": "masjidbilalaz@gmail.com",
    "contact_person": "",
    "contact_person_role": "",
    "latitude": 33.0562786,
    "longitude": -112.0445697
  },
  {
    "name": "Majid Al-Noor",
    "address": "N Matlock St, Mesa, AZ 85203",
    "city": "Mesa",
    "state": "Arizona",
    "zip_code": 85203,
    "country": "United States",
    "phone": "480-644-0074",
    "website": "https://www.masjid-alnoor.org/",
    "email_primary": "info@masjid-alnoor.org",
    "contact_person": "",
    "contact_person_role": "",
    "latitude": 33.4233713,
    "longitude": -111.8080229
  },
  {
    "name": "Albanian American Islamic Center",
    "address": "5825 St Charles Rd, Berkeley, IL 60163",
    "city": "Berkeley",
    "state": "Arizona",
    "zip_code": 60163,
    "country": "United States",
    "phone": "708-544-2609",
    "website": "https://albanianamericanislamiccenter.com/",
    "email_primary": "office@albanianilamciccenter.com",
    "contact_person": "Mr. Ismail Mehmeti",
    "contact_person_role": "President",
    "latitude": 41.8892227,
    "longitude": -87.9144034
  },
  {
    "name": "Arizona Cultural Academy",
    "address": "7810 S 42nd Pl, Phoenix, AZ 85042",
    "city": "Phoenix",
    "state": "Arizona",
    "zip_code": 85042,
    "country": "United States",
    "phone": "602-454-1222",
    "website": "https://www.azacademy.org/",
    "email_primary": "info@azacademy.org",
    "contact_person": "",
    "contact_person_role": "",
    "latitude": 33.3756163,
    "longitude": -111.9929104
  },
  {
    "name": "Islamic Center of North East Valley",
    "address": "12125 E Vía Linda, Scottsdale, AZ 85259",
    "city": "Scottsdale",
    "state": "Arizona",
    "zip_code": 85259,
    "country": "United States",
    "phone": "602-456-0199",
    "website": "https://islamcenter.com/",
    "email_primary": "pr@islamcenter.com",
    "contact_person": "",
    "contact_person_role": "",
    "latitude": 33.5892259,
    "longitude": -111.818385
  },
  {
    "name": "Masjid Omar Bin Khatab",
    "address": "مسجد عمر بن الخطاب مدينة تمبي Tempe, 6225 S McClintock Dr, Tempe, AZ 85283",
    "city": "Tempe",
    "state": "Arizona",
    "zip_code": 85283,
    "country": "United States",
    "phone": "480-775-6627",
    "website": "https://masjidomartempe.org/",
    "email_primary": "MasjidOmarTempe@Yahoo.com",
    "contact_person": "",
    "contact_person_role": "",
    "latitude": 33.3652465,
    "longitude": -111.9106558
  },
  {
    "name": "ICC-Islamic Community Center of Tempe",
    "address": "131 E 6th St, Tempe, AZ 85281",
    "city": "Tempe",
    "state": "Arizona",
    "zip_code": 85281,
    "country": "United States",
    "phone": "480-894-6070",
    "website": "https://tempemosque.com/",
    "email_primary": "office@tempemosque.com",
    "contact_person": "",
    "contact_person_role": "",
    "latitude": 33.4240604,
    "longitude": -111.9369396
  },
  {
    "name": "Muslim Community Center of Tucson",
    "address": "5100 N Kevy Pl, Tucson, AZ 85704",
    "city": "Tucson",
    "state": "Arizona",
    "zip_code": 85704,
    "country": "United States",
    "phone": "520-329-8568",
    "website": "https://www.mcctucson.org/",
    "email_primary": "",
    "contact_person": "",
    "contact_person_role": "",
    "latitude": 32.2995154,
    "longitude": -110.9978625
  },
  {
    "name": "Masjid Al-KHaliq",
    "address": "Clarksville, AR 72830",
    "city": "Clarksville",
    "state": "Arkansas",
    "zip_code": 72830,
    "country": "United States",
    "phone": "813-922-8684",
    "website": "https://www.masjidalkhaliq.org/index.html",
    "email_primary": "office@masjidalkhaliq.org",
    "contact_person": "",
    "contact_person_role": "",
    "latitude": 35.4712243,
    "longitude": -93.468612
  },
  {
    "name": "Muslim Center of Conway",
    "address": "1715 South Blvd, Conway, AR 72034",
    "city": "Conway",
    "state": "Arkansas",
    "zip_code": 72034,
    "country": "United States",
    "phone": "501-339-8744",
    "website": "https://www.the-mcc.org/",
    "email_primary": "info@the-mcc.org",
    "contact_person": "",
    "contact_person_role": "",
    "latitude": 35.0788501,
    "longitude": -92.4477833
  },
  {
    "name": "Islamic Center Of Little Rock",
    "address": "3224 Anna St, Little Rock, AR 72204",
    "city": "Little Rock",
    "state": "Arkansas",
    "zip_code": 72204,
    "country": "United States",
    "phone": "501-565-4930",
    "website": "https://theiclr.org/",
    "email_primary": "admin@theiclr.org",
    "contact_person": "",
    "contact_person_role": "",
    "latitude": 34.7221727,
    "longitude": -92.3333719
  },
  {
    "name": "Masjid Ameen Zakariyya",
    "address": "1717 Wright Ave, Little Rock, AR 72202",
    "city": "Little Rock",
    "state": "Arkansas",
    "zip_code": 72203,
    "country": "United States",
    "phone": "501-372-1942",
    "website": "https://masjid.us/ar/ar-72203/",
    "email_primary": "masjidamerica@gmail.com",
    "contact_person": "",
    "contact_person_role": "",
    "latitude": 34.7319225,
    "longitude": -92.2924757
  },
  {
    "name": "Islamic Center of Alameda",
    "address": "901 Santa Clara Ave, Alameda, CA 94501",
    "city": "Alameda",
    "state": "California",
    "zip_code": 94501,
    "country": "United States",
    "phone": "510-748-9052",
    "website": "https://icabayarea.org/",
    "email_primary": "info@icabayarea.org",
    "contact_person": "",
    "contact_person_role": "",
    "latitude": 37.7733957,
    "longitude": -122.2702309
  },
  {
    "name": "Salaam Islamic Center",
    "address": "1136 N Brookhurst St, Anaheim, CA 92801",
    "city": "Anaheim",
    "state": "California",
    "zip_code": 92801,
    "country": "United States",
    "phone": "714-999-2800",
    "website": "https://www.aicpca.org/",
    "email_primary": "info@aicpca.org",
    "contact_person": "",
    "contact_person_role": "",
    "latitude": 33.8486191,
    "longitude": -117.9588111
  },
  {
    "name": "Masjid Al-Ansar",
    "address": "1717 S Brookhurst St, Anaheim, CA 92804",
    "city": "Anaheim",
    "state": "California",
    "zip_code": 92804,
    "country": "United States",
    "phone": "714-535-1100",
    "website": "https://www.wcismasjid.com/",
    "email_primary": "office@wcismasjid.com",
    "contact_person": "",
    "contact_person_role": "",
    "latitude": 33.8055971,
    "longitude": -117.9595433
  },
  {
    "name": "Islamic Center of East Bay",
    "address": "33330 Peace Terrace, Fremont, CA 94555",
    "city": "Fremont",
    "state": "California",
    "zip_code": 94555,
    "country": "United States",
    "phone": "510-429-4732",
    "website": "https://isebfremont.org/",
    "email_primary": "info@iseb.org",
    "contact_person": "",
    "contact_person_role": "",
    "latitude": 37.5808282,
    "longitude": -122.0547467
  },
  {
    "name": "Masjid Al-Fatiha of America",
    "address": "210 N Citrus Ave, Azusa, CA 91702",
    "city": "Azusa",
    "state": "California",
    "zip_code": 91702,
    "country": "United States",
    "phone": "626-815-8679",
    "website": "https://www.masjidalfatiha.org/",
    "email_primary": "masjid.alfatiha@gmail.com",
    "contact_person": "",
    "contact_person_role": "",
    "latitude": 34.1242211,
    "longitude": -117.8897116
  },
  {
    "name": "Masjid Al-Rasool",
    "address": "1206 Erringer Rd, Simi Valley, CA 93065",
    "city": "Simi Valley",
    "state": "California",
    "zip_code": 93065,
    "country": "United States",
    "phone": "805-334--178",
    "website": "https://www.masjid-al-rasool.com/",
    "email_primary": "masjid.rasool@gmail.com",
    "contact_person": "",
    "contact_person_role": "",
    "latitude": 34.2611235,
    "longitude": -118.7612035
  },
  {
    "name": "Fatima Islamic Society",
    "address": "7252 Remmet Ave # 101, Canoga Park, CA 91303",
    "city": "Canoga Park",
    "state": "California",
    "zip_code": 91303,
    "country": "United States",
    "phone": "818-347-8889",
    "website": "https://fatimasociety.org/",
    "email_primary": "",
    "contact_person": "",
    "contact_person_role": "",
    "latitude": 34.2026783,
    "longitude": -118.6001871
  },
  {
    "name": "Islamic Center of Chico",
    "address": "1316 Nord Ave, Chico, CA 95926",
    "city": "Chico",
    "state": "California",
    "zip_code": 95926,
    "country": "United States",
    "phone": "530-342-5889",
    "website": "https://www.chicoislamiccenter.org/",
    "email_primary": "milhan@mail.csuchico.edu",
    "contact_person": "",
    "contact_person_role": "",
    "latitude": 39.7340683,
    "longitude": -121.862621
  },
  {
    "name": "Chino Valley Islamic Center",
    "address": "4711 Chino Ave, Chino, CA 91710",
    "city": "Chico",
    "state": "California",
    "zip_code": 91710,
    "country": "United States",
    "phone": "909-786-1487",
    "website": "https://cvislamiccenter.org/",
    "email_primary": "info@CVIslamicCenter.org",
    "contact_person": "",
    "contact_person_role": "",
    "latitude": 34.0110075,
    "longitude": -117.7016815
  },
  {
    "name": "Al Rashid Mosque",
    "address": "113 St NW, Edmonton, AB T5E 5A8, Canada",
    "city": "Edmonton",
    "state": "Alberta",
    "zip_code": "T5E 5A8",
    "country": "United States",
    "phone": "780-451-6694",
    "website": "https://alrashidmosque.ca/",
    "email_primary": "info@alrashidmosque.ca",
    "contact_person": "",
    "contact_person_role": "",
    "latitude": 53.590475,
    "longitude": -113.5151055
  },
  {
    "name": "Dar Ul-Islam Masjid",
    "address": "2449 Buena Vista Ave, Walnut Creek, CA 94597",
    "city": "Walnut Creek",
    "state": "California",
    "zip_code": 94597,
    "country": "United States",
    "phone": "925-482-0077",
    "website": "https://www.darulislam.org/",
    "email_primary": "operations@darulislam.org",
    "contact_person": "Khaled Saleh",
    "contact_person_role": "Director of Operations",
    "latitude": 37.9135327,
    "longitude": -122.0732028
  },
  {
    "name": "Islamic Center of Corona and Norco",
    "address": "465 Santana Way, Corona, CA 92881",
    "city": "Corona",
    "state": "California",
    "zip_code": 92881,
    "country": "United States",
    "phone": "951-736-8155",
    "website": "https://coronamuslims.com/",
    "email_primary": "info@coronamuslims.com",
    "contact_person": "",
    "contact_person_role": "",
    "latitude": 33.8517001,
    "longitude": -117.5625688
  },
  {
    "name": "Islamic Educational Center of Orange Country",
    "address": "3194 Airport Loop Dr b, Costa Mesa, CA 92626",
    "city": "Costa Mesa",
    "state": "California",
    "zip_code": 92626,
    "country": "United States",
    "phone": "714-432-0062",
    "website": "https://iecoc.org/",
    "email_primary": "info@iecoc.org",
    "contact_person": "",
    "contact_person_role": "",
    "latitude": 33.6842713,
    "longitude": -117.8667285
  },
  {
    "name": "Kurdish Community Islamic Center",
    "address": "El Cajon, CA 92021",
    "city": "El Cajon",
    "state": "California",
    "zip_code": 92021,
    "country": "United States",
    "phone": "619-442-4435",
    "website": "https://masjidashty.com/",
    "email_primary": "masjidashty2010@hotmail.com",
    "contact_person": "",
    "contact_person_role": "",
    "latitude": 32.8324351,
    "longitude": -116.8792553
  },
  {
    "name": "AR-Rahman Islamic Center",
    "address": "7641 Sierra Ave., Fontana, CA 92336",
    "city": "Fontana",
    "state": "California",
    "zip_code": 92336,
    "country": "United States",
    "phone": "909-355-4900",
    "website": "https://arrahmanislamiccenter.com/",
    "email_primary": "email@ArrahmanIslamicCenter.com",
    "contact_person": "",
    "contact_person_role": "",
    "latitude": 34.1149992,
    "longitude": -117.4347555
  },
  {
    "name": "Al-Medina Education Center",
    "address": "5880 Thornton Ave, Newark, CA 94560",
    "city": "Newark",
    "state": "California",
    "zip_code": 94560,
    "country": "United States",
    "phone": "510-516-7890",
    "website": "https://mec1.org/",
    "email_primary": "info@mec1.org",
    "contact_person": "",
    "contact_person_role": "",
    "latitude": 37.5382202,
    "longitude": -122.0283834
  },
  {
    "name": "Islamic Society of East Bay",
    "address": "33330 Peace Terrace, Fremont, CA 94555",
    "city": "Fremont",
    "state": "California",
    "zip_code": 94555,
    "country": "United States",
    "phone": "510-429-4732",
    "website": "https://isebfremont.org/",
    "email_primary": "info@iseb.org",
    "contact_person": "",
    "contact_person_role": "",
    "latitude": 37.5808282,
    "longitude": -122.0547467
  },
  {
    "name": "Ibrahim Khalilullah Islamic Center",
    "address": "1121 Old Canyon Rd, Fremont, CA 94536",
    "city": "Fremont",
    "state": "California",
    "zip_code": 95639,
    "country": "United States",
    "phone": "510-651-0122",
    "website": "https://masjidikic.org/",
    "email_primary": "Fareed.Wardak@IKICenter.org",
    "contact_person": "",
    "contact_person_role": "",
    "latitude": 37.5823453,
    "longitude": -121.9634708
  },
  {
    "name": "Islamic Center of Fremont",
    "address": "4039 Irvington Ave, Fremont, CA 94538",
    "city": "Fremont",
    "state": "California",
    "zip_code": 94538,
    "country": "United States",
    "phone": "510-661-0352",
    "website": "https://icfbayarea.com/",
    "email_primary": "wakilahmed2012@gmail.com",
    "contact_person": "",
    "contact_person_role": "",
    "latitude": 37.5313514,
    "longitude": -121.9597979
  },
  {
    "name": "Badr Islamic Center",
    "address": "7150 N Milburn Ave, Fresno, CA 93722",
    "city": "Fresno",
    "state": "California",
    "zip_code": 93722,
    "country": "United States",
    "phone": "559-297-9535",
    "website": "https://centrebadr.net/",
    "email_primary": "mail@al-quean.com",
    "contact_person": "",
    "contact_person_role": "",
    "latitude": 36.8391642,
    "longitude": -119.8783564
  },
  {
    "name": "Islamic Society of Orange Country",
    "address": "9752 13th St, Garden Grove, CA 92844",
    "city": "",
    "state": "California",
    "zip_code": 92844,
    "country": "United States",
    "phone": "714-531-1722",
    "website": "https://www.isocmasjid.org/",
    "email_primary": "info@isocmasjid.org",
    "contact_person": "",
    "contact_person_role": "",
    "latitude": 33.755054,
    "longitude": -117.958393
  },
  {
    "name": "Islamic Center of Northridge | Granada Hills Masjid",
    "address": "11439 Encino Ave, Granada Hills, CA 91344",
    "city": "Granada Hills",
    "state": "California",
    "zip_code": 91344,
    "country": "United States",
    "phone": "818-360-3500",
    "website": "https://goicn.org/",
    "email_primary": "info@goicn.org",
    "contact_person": "",
    "contact_person_role": "",
    "latitude": 34.2785881,
    "longitude": -118.5162794
  },
  {
    "name": "The Islamic Center of Hawthorne",
    "address": "12209 Hawthorne Way, Hawthorne, CA 90250",
    "city": "Hawthorne",
    "state": "California",
    "zip_code": 90250,
    "country": "United States",
    "phone": "31--973-8000",
    "website": "https://ichla.org/",
    "email_primary": "info@ichla.org",
    "contact_person": "",
    "contact_person_role": "",
    "latitude": 33.921749,
    "longitude": -118.3538195
  },
  {
    "name": "Hayward Islamic Center",
    "address": "26320 Gading Rd, Hayward, CA 94544",
    "city": "Hayward",
    "state": "California",
    "zip_code": 94544,
    "country": "United States",
    "phone": "510-963-5578",
    "website": "https://www.masjidmuhajireen.org/",
    "email_primary": "info@masjidmuhajireen.org",
    "contact_person": "",
    "contact_person_role": "",
    "latitude": 37.6436144,
    "longitude": -122.0808399
  },
  {
    "name": "Masjid Muhajireen",
    "address": "185 Folsom Ave, Hayward, CA 94544",
    "city": "Hayward",
    "state": "California",
    "zip_code": 94544,
    "country": "United States",
    "phone": "510-786-0313",
    "website": "https://www.masjidmuhajireen.org/",
    "email_primary": "info@masjidmuhajireen.org",
    "contact_person": "",
    "contact_person_role": "",
    "latitude": 37.6280285,
    "longitude": -122.0588746
  },
  {
    "name": "Fatimiyya Islamic Center",
    "address": "573 Bartlett Ave, Hayward, CA 94541",
    "city": "Hayward",
    "state": "California",
    "zip_code": 94541,
    "country": "United States",
    "phone": "510-244-7780",
    "website": "",
    "email_primary": "FartimiyyaCenter@gmail.com",
    "contact_person": "",
    "contact_person_role": "",
    "latitude": 37.6711169,
    "longitude": -122.115652
  },
  {
    "name": "Islamic Center of Irvine",
    "address": "2 Truman St, Irvine, CA 92620",
    "city": "Irvine",
    "state": "California",
    "zip_code": 92620,
    "country": "United States",
    "phone": "949-786-4264",
    "website": "https://www.icoi.net/",
    "email_primary": "ws@icoi.net",
    "contact_person": "",
    "contact_person_role": "",
    "latitude": 33.6964995,
    "longitude": -117.765507
  },
  {
    "name": "Islamic Center of North Valley",
    "address": "42554 4th St, Ridgecrest, CA 93555",
    "city": "Lancaster",
    "state": "California",
    "zip_code": 93555,
    "country": "United States",
    "phone": "661-726-4749",
    "website": "https://www.islamiccenterofnorthvalley.com/",
    "email_primary": "admin@icnvmosque.com",
    "contact_person": "",
    "contact_person_role": "",
    "latitude": 35.6396916,
    "longitude": -117.5870356
  },
  {
    "name": "Masjid Usman | Center for Religious Tolerance",
    "address": "7126 Westview Pl, Lemon Grove, CA 91945",
    "city": "Lemon Grove",
    "state": "California",
    "zip_code": 91945,
    "country": "United States",
    "phone": "619-374-1043",
    "website": "https://masjidusman.org/",
    "email_primary": "info@MasjidUsman.org",
    "contact_person": "",
    "contact_person_role": "",
    "latitude": 32.7414814,
    "longitude": -117.0447043
  },
  {
    "name": "Islamic Center of Livermore",
    "address": "379 S Livermore Ave, Livermore, CA 94550",
    "city": "Livermore",
    "state": "California",
    "zip_code": 94550,
    "country": "United States",
    "phone": "925-443-1826",
    "website": "https://iclivermore.org/",
    "email_primary": "info@iclivermore.org",
    "contact_person": "",
    "contact_person_role": "",
    "latitude": 37.6803399,
    "longitude": -121.7661823
  },
  {
    "name": "Lodi Muslim Mosque",
    "address": "210 Poplar St, Lodi, CA 95240",
    "city": "Lodi",
    "state": "California",
    "zip_code": 95240,
    "country": "United States",
    "phone": "209-333-9619",
    "website": "",
    "email_primary": "Lodimuslimmosque20@gmail.com",
    "contact_person": "",
    "contact_person_role": "",
    "latitude": 38.1191527,
    "longitude": -121.2690306
  },
  {
    "name": "Islamic Center of Southern California",
    "address": "434 S Vermont Ave, Los Angeles, CA 90020",
    "city": "Los Angeles",
    "state": "California",
    "zip_code": 90020,
    "country": "United States",
    "phone": "213-382-9200",
    "website": "https://www.islamiccenter.com/",
    "email_primary": "info@islamiccenter.com",
    "contact_person": "",
    "contact_person_role": "",
    "latitude": 34.0664608,
    "longitude": -118.2912604
  },
  {
    "name": "Islamic Community Center of Redlands",
    "address": "24769 Redlands Blvd, Loma Linda, CA 92354",
    "city": "Loma Linda",
    "state": "California",
    "zip_code": 92354,
    "country": "United States",
    "phone": "909-915-5920",
    "website": "https://iccredlands.org/",
    "email_primary": "contact@iccredlands.org",
    "contact_person": "",
    "contact_person_role": "",
    "latitude": 34.0622166,
    "longitude": -117.2642589
  },
  {
    "name": "Islamic Center of South Bay",
    "address": "28516 Walnut St, Lomita, CA 90717",
    "city": "Lomita",
    "state": "California",
    "zip_code": 90717,
    "country": "United States",
    "phone": "310-534-1363",
    "website": "https://masjidalnoor.org/",
    "email_primary": "info@masjidalnoor.org",
    "contact_person": "",
    "contact_person_role": "",
    "latitude": 33.7875416,
    "longitude": -118.3120665
  },
  {
    "name": "Masjid Al-Shareef",
    "address": "2104 Orange Ave, Long Beach, CA 90806",
    "city": "Long Beach",
    "state": "California",
    "zip_code": 90806,
    "country": "United States",
    "phone": "562-591-5320",
    "website": "https://maslb.net/",
    "email_primary": "masjidalshareefoflongbeach57@gmail.cm",
    "contact_person": "",
    "contact_person_role": "",
    "latitude": 33.7953791,
    "longitude": -118.1760353
  },
  {
    "name": "Masjid Bilal Islamic Center",
    "address": "4016 S Central Ave, Los Angeles, CA 90011",
    "city": "Los Angeles",
    "state": "California",
    "zip_code": 90011,
    "country": "United States",
    "phone": "323-233-7274",
    "website": "https://www.masjidbilalonline.com/index.html",
    "email_primary": "bilalcenter@aol.com",
    "contact_person": "",
    "contact_person_role": "",
    "latitude": 34.0106292,
    "longitude": -118.2557958
  },
  {
    "name": "Salaam Islamic Center",
    "address": "3735 Alton Pkwy, Irvine, CA 92606",
    "city": "Irvine",
    "state": "California",
    "zip_code": 92606,
    "country": "United States",
    "phone": "",
    "website": "",
    "email_primary": "info@salaamic.org",
    "contact_person": "",
    "contact_person_role": "",
    "latitude": 33.6831962,
    "longitude": -117.8167636
  },
  {
    "name": "Masjid Umar Ibn Khattab",
    "address": "1025 W Exposition Blvd, Los Angeles, CA 90007",
    "city": "Los Angeles",
    "state": "California",
    "zip_code": 90007,
    "country": "United States",
    "phone": "213-733-9838",
    "website": "https://omarfoundation.com/",
    "email_primary": "info@omarfoundation.com",
    "contact_person": "",
    "contact_person_role": "",
    "latitude": 34.0186024,
    "longitude": -118.2924579
  },
  {
    "name": "Iranian American Muslim Association",
    "address": "3376 Motor Ave, Los Angeles, CA 90034",
    "city": "Los Angeles",
    "state": "California",
    "zip_code": 90034,
    "country": "United States",
    "phone": "310-202-8181",
    "website": "https://iman.org/",
    "email_primary": "INFO@IMAN.ORG",
    "contact_person": "",
    "contact_person_role": "",
    "latitude": 34.0282807,
    "longitude": -118.40951
  },
  {
    "name": "Masjid Bilal IBN Rabah",
    "address": "696 Mt Zion Rd, Jonesboro, GA 30236",
    "city": "Morrow",
    "state": "Georgia",
    "zip_code": 30236,
    "country": "United States",
    "phone": "770-629-2220",
    "website": "https://masjidbilalibnrabaah.com/",
    "email_primary": "info@masjidilalibnrabaah.com",
    "contact_person": "",
    "contact_person_role": "",
    "latitude": 33.5735475,
    "longitude": -84.3676358
  },
  {
    "name": "Madera Islamic Center",
    "address": "16643 Rd 26, Madera, CA 93638",
    "city": "Madera",
    "state": "California",
    "zip_code": 93638,
    "country": "United States",
    "phone": "209-725-8167",
    "website": "https://www.masjidmadera.com/",
    "email_primary": "masjidmadera@gmail.com",
    "contact_person": "",
    "contact_person_role": "",
    "latitude": 36.9912515,
    "longitude": -120.0735309
  },
  {
    "name": "Islamic Center of Milly Valley",
    "address": "Shell Rd, Victoria, Australia",
    "city": "Mill Valley",
    "state": "California",
    "zip_code": 92941,
    "country": "United States",
    "phone": "415-383-0617",
    "website": "https://www.mvmasjid.com/",
    "email_primary": "school@mvmasjid.com info@mvmasjid.com",
    "contact_person": "",
    "contact_person_role": "",
    "latitude": -38.2653628,
    "longitude": 144.5736587
  },
  {
    "name": "El Zahara Islamic Center",
    "address": "218 Irving St, Midland Park, NJ 07432",
    "city": "Midland Park",
    "state": "New Jersey",
    "zip_code": 7432,
    "country": "United States",
    "phone": "201-670-9090",
    "website": "https://www.elzahra.org/",
    "email_primary": "info@elzahra.org",
    "contact_person": "",
    "contact_person_role": "",
    "latitude": 41.0012454,
    "longitude": -74.1436071
  },
  {
    "name": "Dar Us Salam Masjid",
    "address": "Fiesta Plaza, Dempsey Rd, Milpitas, CA 95035",
    "city": "Milpitas",
    "state": "California",
    "zip_code": 95050,
    "country": "United States",
    "phone": "408-719-9010",
    "website": "https://alhilaal.org/home/",
    "email_primary": "info@alhilaal.org",
    "contact_person": "",
    "contact_person_role": "",
    "latitude": 37.4337402,
    "longitude": -121.8859672
  },
  {
    "name": "Orange Country Islamic Foundation",
    "address": "23581 Madero, Mission Viejo, CA 92691",
    "city": "Mission Viejo",
    "state": "California",
    "zip_code": 92691,
    "country": "United States",
    "phone": "949-595-0480",
    "website": "https://ocif.org/",
    "email_primary": "admin@ocif.org",
    "contact_person": "",
    "contact_person_role": "",
    "latitude": 33.6205731,
    "longitude": -117.6758662
  },
  {
    "name": "Islamic Center of Modesto",
    "address": "1445 N Carpenter Rd, Modesto, CA 95358",
    "city": "Modesto",
    "state": "California",
    "zip_code": 95358,
    "country": "United States",
    "phone": "209-576-8149",
    "website": "https://www.icomodesto.org/",
    "email_primary": "imam@icomodesto.org",
    "contact_person": "",
    "contact_person_role": "",
    "latitude": 37.6566334,
    "longitude": -121.0330621
  },
  {
    "name": "Islamic Society of Solano County",
    "address": "Napa, CA 94581",
    "city": "Napa",
    "state": "California",
    "zip_code": 94581,
    "country": "United States",
    "phone": "707-294-9521",
    "website": "https://www.solanocountyislamiccenter.com/",
    "email_primary": "Solanocountyislamiccenter@yahoo.com",
    "contact_person": "",
    "contact_person_role": "",
    "latitude": 38.3,
    "longitude": -122.28
  },
  {
    "name": "Islamic Center of Conejo Valley",
    "address": "2700 Borchard Rd, Thousand Oaks, CA 91320",
    "city": "Newbury Park",
    "state": "California",
    "zip_code": 91320,
    "country": "United States",
    "phone": "805-499-2106",
    "website": "https://iccv.org/",
    "email_primary": "iccvnews@gmail.com",
    "contact_person": "",
    "contact_person_role": "",
    "latitude": 34.1784069,
    "longitude": -118.9334633
  },
  {
    "name": "Madina Islamic Center",
    "address": "12500 Firestone Blvd, Norwalk, CA 90650",
    "city": "Norwalk",
    "state": "California",
    "zip_code": 90650,
    "country": "United States",
    "phone": "562-676-7351",
    "website": "https://madinamasjid.org/",
    "email_primary": "aka461@hotmail.com",
    "contact_person": "",
    "contact_person_role": "",
    "latitude": 33.9042052,
    "longitude": -118.0674796
  },
  {
    "name": "Masjid Imam Bukhari",
    "address": "Panorama City, CA 91402",
    "city": "Panorama City",
    "state": "California",
    "zip_code": 91402,
    "country": "United States",
    "phone": "818-894-3025",
    "website": "https://imambukharimasjid.org/",
    "email_primary": "talhamajeed@hotmail.com",
    "contact_person": "",
    "contact_person_role": "",
    "latitude": 34.2252697,
    "longitude": -118.442596
  },
  {
    "name": "Islamic Center of Perris",
    "address": "3895 N Perris Blvd, Perris, CA 92571",
    "city": "Perris",
    "state": "California",
    "zip_code": 92571,
    "country": "United States",
    "phone": "951-443-3929",
    "website": "https://www.perrismasjid.com/",
    "email_primary": "IslamicCentorofPerris@gmail.com",
    "contact_person": "",
    "contact_person_role": "",
    "latitude": 33.84225,
    "longitude": -117.22526
  },
  {
    "name": "Islamic Center Pittsburg",
    "address": "300 E 10th St, Pittsburg, CA 94565",
    "city": "Pittsburg",
    "state": "California",
    "zip_code": 94565,
    "country": "United States",
    "phone": "925-473-0384",
    "website": "https://www.icp-pgh.org/",
    "email_primary": "fgh@yahoo.com",
    "contact_person": "",
    "contact_person_role": "",
    "latitude": 38.0271627,
    "longitude": -121.8829974
  },
  {
    "name": "Muslim Community Center of East Bay",
    "address": "5724 W Las Positas Blvd #300, Pleasanton, CA 94588",
    "city": "Pleasanton",
    "state": "California",
    "zip_code": 94588,
    "country": "United States",
    "phone": "",
    "website": "https://mcceastbay.org/",
    "email_primary": "info@mcceasthbay.org",
    "contact_person": "",
    "contact_person_role": "",
    "latitude": 37.6855153,
    "longitude": -121.8911505
  },
  {
    "name": "Islamic Center of Inland Empire",
    "address": "1555 E 3rd St, Pomona, CA 91766",
    "city": "Pomona",
    "state": "California",
    "zip_code": 91766,
    "country": "United States",
    "phone": "909-868-8811",
    "website": "https://ranchomasjid.org",
    "email_primary": "admin@ranchomasjid.org",
    "contact_person": "",
    "contact_person_role": "",
    "latitude": 34.0576833,
    "longitude": -117.7248693
  },
  {
    "name": "Islamic Center of Claremont",
    "address": "3641 N Garey Ave, Pomona, CA 91767",
    "city": "Pomona",
    "state": "California",
    "zip_code": 91767,
    "country": "United States",
    "phone": "909-593-1865",
    "website": "https://islamiccenterofclaremont.org/",
    "email_primary": "",
    "contact_person": "",
    "contact_person_role": "",
    "latitude": 34.1090301,
    "longitude": -117.7490198
  },
  {
    "name": "Zainabia Islamic Society",
    "address": "575 N Towne Ave, Pomona, CA 91767",
    "city": "Pomona",
    "state": "California",
    "zip_code": 91767,
    "country": "United States",
    "phone": "909-981-5491",
    "website": "https://www.zainabia-la.org/",
    "email_primary": "",
    "contact_person": "",
    "contact_person_role": "",
    "latitude": 34.0635349,
    "longitude": -117.742056
  },
  {
    "name": "Islamic Center of Redlands",
    "address": "11210 Alabama St, Redlands, CA 92373",
    "city": "Redlands",
    "state": "California",
    "zip_code": 92373,
    "country": "United States",
    "phone": "909-792-0882",
    "website": "https://iccredlands.org/",
    "email_primary": "contact@iccredlands.org",
    "contact_person": "",
    "contact_person_role": "",
    "latitude": 34.0500011,
    "longitude": -117.2089316
  },
  {
    "name": "Islamic Center of Reseda",
    "address": "18206 Victory Blvd, Tarzana, CA 91335",
    "city": "Reseda",
    "state": "California",
    "zip_code": 91335,
    "country": "United States",
    "phone": "818-996-9116",
    "website": "https://islamiccenterofreseda.com/",
    "email_primary": "icreseda1@aol.com",
    "contact_person": "",
    "contact_person_role": "",
    "latitude": 34.1862531,
    "longitude": -118.5297453
  },
  {
    "name": "Maktab Tarighat Oveyssi Shahmaghsoudi",
    "address": "18011 Sherman Way, Reseda, CA 91335",
    "city": "Reseda",
    "state": "California",
    "zip_code": 91335,
    "country": "United States",
    "phone": "800-820-2180",
    "website": "https://mto.org/",
    "email_primary": "info@mto.org",
    "contact_person": "",
    "contact_person_role": "",
    "latitude": 34.2018755,
    "longitude": -118.5257337
  },
  {
    "name": "Masjid Al Noor",
    "address": "1330 Cutting Blvd, Richmond, CA 94804",
    "city": "Richmond",
    "state": "California",
    "zip_code": 94801,
    "country": "United States",
    "phone": "510-283-9966",
    "website": "https://www.masjidalnoorrichmond.com/",
    "email_primary": "",
    "contact_person": "",
    "contact_person_role": "",
    "latitude": 37.9245628,
    "longitude": -122.3563608
  },
  {
    "name": "Masjid Al Rahman",
    "address": "1110 36th St, Richmond, CA 94804",
    "city": "Richmond",
    "state": "California",
    "zip_code": 94804,
    "country": "United States",
    "phone": "510-236-8130",
    "website": "https://masjidalrahman.com/",
    "email_primary": "info@masjidalrahman.com",
    "contact_person": "",
    "contact_person_role": "",
    "latitude": 37.9496489,
    "longitude": -122.3326745
  },
  {
    "name": "Islamic Center of Riverside",
    "address": "1038 W Linden St, Riverside, CA 92507",
    "city": "Riverside",
    "state": "California",
    "zip_code": 92507,
    "country": "United States",
    "phone": "951-684-5466",
    "website": "https://www.islamiccenterofriverside.net/",
    "email_primary": "info@risersidemasjid.com",
    "contact_person": "",
    "contact_person_role": "",
    "latitude": 33.9781403,
    "longitude": -117.3342403
  },
  {
    "name": "Islamic Society of San Gabriel Valley",
    "address": "19164 E Walnut Dr N, Rowland Heights, CA 91748",
    "city": "Rowland Heights",
    "state": "California",
    "zip_code": 91748,
    "country": "United States",
    "phone": "926-964-3596",
    "website": "https://icsgv.com/",
    "email_primary": "info@icsgv.com",
    "contact_person": "",
    "contact_person_role": "",
    "latitude": 33.9953969,
    "longitude": -117.8843317
  },
  {
    "name": "Islamic Center of Sacramento",
    "address": "Sacramento, CA 95818",
    "city": "Sacramento",
    "state": "California",
    "zip_code": 95818,
    "country": "United States",
    "phone": "916-444-6323",
    "website": "https://www.masjidannur.com/",
    "email_primary": "EducationDirector@masjidannur.com",
    "contact_person": "",
    "contact_person_role": "",
    "latitude": 38.5603056,
    "longitude": -121.4970294
  },
  {
    "name": "Salam Islamic Center",
    "address": "4541 College Oak Dr, Sacramento, CA 95841",
    "city": "Sacramento",
    "state": "California",
    "zip_code": 95841,
    "country": "United States",
    "phone": "916-979-1933",
    "website": "https://salamcenter.org/",
    "email_primary": "OfficeManager@salamcenter.org",
    "contact_person": "",
    "contact_person_role": "",
    "latitude": 38.6473722,
    "longitude": -121.3514827
  },
  {
    "name": "Masjid Ibrahim",
    "address": "3449 Rio Linda Blvd, Sacramento, CA 95838",
    "city": "Sacramento",
    "state": "California",
    "zip_code": 95838,
    "country": "United States",
    "phone": "916-925-4651",
    "website": "https://www.masjidibrahim.org/",
    "email_primary": "info@masjidibrahim.com",
    "contact_person": "",
    "contact_person_role": "",
    "latitude": 38.6314376,
    "longitude": -121.4464883
  },
  {
    "name": "Masjid Annur Islamic Center",
    "address": "6990 65th St, Sacramento, CA 95823",
    "city": "Sacramento",
    "state": "California",
    "zip_code": 95823,
    "country": "United States",
    "phone": "916-392-6687",
    "website": "https://www.masjidannur.com/",
    "email_primary": "EducationDirector@masjidannur.com",
    "contact_person": "",
    "contact_person_role": "",
    "latitude": 38.4997141,
    "longitude": -121.4394625
  },
  {
    "name": "Islamic Community of Salinas",
    "address": "333 Capitol St, Salinas, CA 93901",
    "city": "Salinas",
    "state": "California",
    "zip_code": 93901,
    "country": "United States",
    "phone": "831-422-0900",
    "website": "https://www.icsalinas.org/",
    "email_primary": "imam@icsalinas.org",
    "contact_person": "",
    "contact_person_role": "",
    "latitude": 36.6719072,
    "longitude": -121.6596583
  },
  {
    "name": "Masjid Hamza | Islamic Center of Mira Mesa",
    "address": "9235 Activity Rd #112, San Diego, CA 92126",
    "city": "San Diego",
    "state": "California",
    "zip_code": 92129,
    "country": "United States",
    "phone": "619-416-6018",
    "website": "https://www.masjidhamzasandiego.com/",
    "email_primary": "masjidhamza9235@gmail.com",
    "contact_person": "",
    "contact_person_role": "",
    "latitude": 32.8964713,
    "longitude": -117.1286353
  },
  {
    "name": "Islamic Education Center of San Diego",
    "address": "8977 Activity Rd #103, San Diego, CA 92126",
    "city": "San Diego",
    "state": "California",
    "zip_code": 92126,
    "country": "United States",
    "phone": "858-689-8888",
    "website": "",
    "email_primary": "info@iecsd.com",
    "contact_person": "",
    "contact_person_role": "",
    "latitude": 32.8959802,
    "longitude": -117.132499
  },
  {
    "name": "Muslim Community Center of Greater San Diego",
    "address": "14698 Via Fiesta, San Diego, CA 92127",
    "city": "San Diego",
    "state": "California",
    "zip_code": 92127,
    "country": "United States",
    "phone": "858-756-5100",
    "website": "https://www.mccsandiego.org/",
    "email_primary": "info@mcc-gsd.org",
    "contact_person": "",
    "contact_person_role": "",
    "latitude": 32.9919428,
    "longitude": -117.1649351
  },
  {
    "name": "Islamic Center of San Diego",
    "address": "7050 Eckstrom Ave, San Diego, CA 92111",
    "city": "San Diego",
    "state": "California",
    "zip_code": 92111,
    "country": "United States",
    "phone": "858-278-5240",
    "website": "https://www.icsd.org/",
    "email_primary": "admin@icsd.org",
    "contact_person": "",
    "contact_person_role": "",
    "latitude": 32.8205842,
    "longitude": -117.1654905
  },
  {
    "name": "Mas-San Diego",
    "address": "San Diego, CA 92126",
    "city": "San Diego",
    "state": "California",
    "zip_code": 92126,
    "country": "United States",
    "phone": "858-603-9221",
    "website": "https://massandiego.org/",
    "email_primary": "admin@massandiego.org",
    "contact_person": "",
    "contact_person_role": "",
    "latitude": 32.9184763,
    "longitude": -117.1382404
  },
  {
    "name": "Masjid Al Tawheed",
    "address": "9011 Elk Grove Florin Rd #0, Elk Grove, CA 95624",
    "city": "Elk Grove",
    "state": "California",
    "zip_code": 95624,
    "country": "United States",
    "phone": "916-686-9519",
    "website": "https://www.masjidaltawheed.com/",
    "email_primary": "admin@masjidaltawheed.com",
    "contact_person": "",
    "contact_person_role": "",
    "latitude": 38.4299929,
    "longitude": -121.3711824
  },
  {
    "name": "Muslim Community Center",
    "address": "850 Divisadero St, San Francisco, CA 94117",
    "city": "San Francisco",
    "state": "California",
    "zip_code": 94117,
    "country": "United States",
    "phone": "415-583-9397",
    "website": "https://mccbrooklyn.org/",
    "email_primary": "info@mccbrooklyn.org",
    "contact_person": "",
    "contact_person_role": "",
    "latitude": 37.7776334,
    "longitude": -122.4381106
  },
  {
    "name": "Islamic Center South Bay Islamic Association",
    "address": "325 N 3rd St, San Jose, CA 95112",
    "city": "San Jose",
    "state": "California",
    "zip_code": 95112,
    "country": "United States",
    "phone": "408-947-9389",
    "website": "https://sbia.info/",
    "email_primary": "sbia@sbia.info",
    "contact_person": "",
    "contact_person_role": "",
    "latitude": 37.3419685,
    "longitude": -121.8923621
  },
  {
    "name": "Saba Islamic Center",
    "address": "4415 Fortran Ct, San Jose, CA 95134",
    "city": "San Jose",
    "state": "California",
    "zip_code": 95134,
    "country": "United States",
    "phone": "408-946-5700",
    "website": "https://www.saba-igc.org/",
    "email_primary": "saba@saba-igc.org webmaster@saba-igc.org",
    "contact_person": "",
    "contact_person_role": "",
    "latitude": 37.421049,
    "longitude": -121.9581482
  },
  {
    "name": "Islamic Community of Bay Area Bosniaks",
    "address": "Fortran Ct, San Jose, CA 95134",
    "city": "San Jose",
    "state": "California",
    "zip_code": 95112,
    "country": "United States",
    "phone": "408-441-0540",
    "website": "https://icbab.org/",
    "email_primary": "sanjosedzemat2016@gmail.com",
    "contact_person": "",
    "contact_person_role": "",
    "latitude": 37.4209865,
    "longitude": -121.9570617
  },
  {
    "name": "Masjid Al Rasool",
    "address": "552 S Bascom Ave, San Jose, CA 95128",
    "city": "San Jose",
    "state": "California",
    "zip_code": 95128,
    "country": "United States",
    "phone": "408-364-0666",
    "website": "https://www.masjid-al-rasool.com/",
    "email_primary": "masjid.rasool@gmail.com",
    "contact_person": "",
    "contact_person_role": "",
    "latitude": 37.3179474,
    "longitude": -121.931615
  },
  {
    "name": "Central Cost Islamic Center",
    "address": "327 Plaza Dr, Santa Maria, CA 93454",
    "city": "Santa Maria",
    "state": "California",
    "zip_code": 93454,
    "country": "United States",
    "phone": "805-352-1922",
    "website": "https://ccicmasjid.org/",
    "email_primary": "info@ccicmasjid.org",
    "contact_person": "",
    "contact_person_role": "",
    "latitude": 34.9376919,
    "longitude": -120.4323873
  },
  {
    "name": "South Valley Islamic Community",
    "address": "14770 Columbet Ave, San Martin, CA 95046",
    "city": "San Martin",
    "state": "California",
    "zip_code": 95046,
    "country": "United States",
    "phone": "408-535-0112",
    "website": "https://svic.org/",
    "email_primary": "svic@svic.org",
    "contact_person": "",
    "contact_person_role": "",
    "latitude": 37.110016,
    "longitude": -121.6017895
  },
  {
    "name": "Masjid Al Haq",
    "address": "228 N Ellsworth Ave, San Mateo, CA 94401",
    "city": "San Mateo",
    "state": "California",
    "zip_code": 94401,
    "country": "United States",
    "phone": "650-678-7893",
    "website": "https://www.masjidulhaqq.com/",
    "email_primary": "masjidulhaqqsanmateo@gmail.com",
    "contact_person": "",
    "contact_person_role": "",
    "latitude": 37.5711764,
    "longitude": -122.3289312
  },
  {
    "name": "San Ramon Valley Islamic Center",
    "address": "2232 Camino Ramon, San Ramon, CA 94583",
    "city": "San Ramon",
    "state": "California",
    "zip_code": 94583,
    "country": "United States",
    "phone": "925-866-7088",
    "website": "https://srvic.org/",
    "email_primary": "webmaster@srvic.org",
    "contact_person": "",
    "contact_person_role": "",
    "latitude": 37.776787,
    "longitude": -121.969178
  },
  {
    "name": "Imamia Education Center",
    "address": "2110 E 1st St #120, Santa Ana, CA 92705",
    "city": "Santa Ana",
    "state": "California",
    "zip_code": 92705,
    "country": "United States",
    "phone": "714-524-5580",
    "website": "https://www.imamia.org/",
    "email_primary": "aamithani@yahoo.com",
    "contact_person": "Amir Mithani",
    "contact_person_role": "Director",
    "latitude": 33.7437182,
    "longitude": -117.8365895
  },
  {
    "name": "Muslim Community Association",
    "address": "3003 Scott Blvd #0, Santa Clara, CA 95054",
    "city": "Santa Clara",
    "state": "California",
    "zip_code": 95054,
    "country": "United States",
    "phone": "408-747-7277",
    "website": "https://mcabayarea.org/",
    "email_primary": "info@mcabayarea.org",
    "contact_person": "",
    "contact_person_role": "",
    "latitude": 37.3771804,
    "longitude": -121.9592202
  },
  {
    "name": "Islamic Society of Santa Rosa",
    "address": "545 Mendocino Ave, Santa Rosa, CA 95401",
    "city": "Santa Rosa",
    "state": "California",
    "zip_code": 95401,
    "country": "United States",
    "phone": "707-525-1144",
    "website": "https://islamicsocietysr.org/",
    "email_primary": "info@islamicsociety-sr.org",
    "contact_person": "",
    "contact_person_role": "",
    "latitude": 38.4433501,
    "longitude": -122.7163454
  },
  {
    "name": "West Valley Muslim Associatin",
    "address": "12370 Saratoga Sunnyvale Rd, Saratoga, CA 95070",
    "city": "Saratoga",
    "state": "California",
    "zip_code": 95070,
    "country": "United States",
    "phone": "408-805-4560",
    "website": "https://wvmuslim.org/",
    "email_primary": "info@wvmuslim.org",
    "contact_person": "",
    "contact_person_role": "",
    "latitude": 37.2886014,
    "longitude": -122.0319501
  },
  {
    "name": "Islamic Society of Monterey County",
    "address": "405 Elm Ave, Seaside, CA 93955",
    "city": "Seaside",
    "state": "California",
    "zip_code": 93955,
    "country": "United States",
    "phone": "831-393-4003",
    "website": "https://ismcca.org/",
    "email_primary": "ismc405@gmail.com",
    "contact_person": "",
    "contact_person_role": "",
    "latitude": 36.6080659,
    "longitude": -121.8535257
  },
  {
    "name": "Al Zahra Islamic Center",
    "address": "8152 Seville Ave, South Gate, CA 90280",
    "city": "South Gate",
    "state": "California",
    "zip_code": 90280,
    "country": "United States",
    "phone": "323-835-0633",
    "website": "https://www.elzahra.org/",
    "email_primary": "info@elzahra.org",
    "contact_person": "",
    "contact_person_role": "",
    "latitude": 33.9630483,
    "longitude": -118.222182
  },
  {
    "name": "Masjid As Sadiq",
    "address": "2065 E 8th St, Stockton, CA 95206",
    "city": "Stockton",
    "state": "California",
    "zip_code": 95206,
    "country": "United States",
    "phone": "209-941-4915",
    "website": "https://masjid.assiddiq.org/",
    "email_primary": "masjid@assiddiq.org",
    "contact_person": "",
    "contact_person_role": "",
    "latitude": 37.9345355,
    "longitude": -121.2538064
  },
  {
    "name": "Stockton Student Mosque",
    "address": "1219 El Monte St, Stockton, CA 95207",
    "city": "Stockton",
    "state": "California",
    "zip_code": 95207,
    "country": "United States",
    "phone": "209-474-3184",
    "website": "http://www.masjidalemaan.com/",
    "email_primary": "info@masjidalemaan.com",
    "contact_person": "",
    "contact_person_role": "",
    "latitude": 37.9843635,
    "longitude": -121.3190086
  },
  {
    "name": "Masjid Al-Emaan",
    "address": "4212 N Pershing Ave, Stockton, CA 95207",
    "city": "Stockton",
    "state": "California",
    "zip_code": 95207,
    "country": "United States",
    "phone": "209-688-2594",
    "website": "https://masjidulemaan.com/",
    "email_primary": "info@masjidulemaan.com",
    "contact_person": "",
    "contact_person_role": "",
    "latitude": 37.9844709,
    "longitude": -121.3194469
  },
  {
    "name": "Islamic Center of Sunnyvale",
    "address": "1260 Persian Dr a1, Sunnyvale, CA 94089",
    "city": "Sunnyvale",
    "state": "California",
    "zip_code": 94089,
    "country": "United States",
    "phone": "408-274-5514",
    "website": "https://tahausa.org/",
    "email_primary": "admin@tahausa.org",
    "contact_person": "",
    "contact_person_role": "",
    "latitude": 37.4061044,
    "longitude": -121.9976496
  },
  {
    "name": "Islamic Center of Temecula Valley",
    "address": "42188 Rio Nedo Rd a, Temecula, CA 92590",
    "city": "Temecula",
    "state": "California",
    "zip_code": 92590,
    "country": "United States",
    "phone": "951-296-6601",
    "website": "https://icotv.org/",
    "email_primary": "secretary@icotv.org",
    "contact_person": "Br. Bahat Akari",
    "contact_person_role": "Education Committe Chairperson",
    "latitude": 33.5123541,
    "longitude": -117.1710739
  },
  {
    "name": "Tracy Islamic Center",
    "address": "11970 W Larch Rd, Tracy, CA 95304",
    "city": "Tracy",
    "state": "California",
    "zip_code": 95304,
    "country": "United States",
    "phone": "209-830-6286",
    "website": "https://www.tracyislamiccenter.org/",
    "email_primary": "info@tracyislamiccenter.org",
    "contact_person": "",
    "contact_person_role": "",
    "latitude": 37.7647205,
    "longitude": -121.4526259
  },
  {
    "name": "Islamic Society of Tracy",
    "address": "1801-1975 W 11th St, Tracy, CA 95376",
    "city": "Tracy",
    "state": "California",
    "zip_code": 95376,
    "country": "United States",
    "phone": "209-839-2275",
    "website": "https://www.isotracy.org/",
    "email_primary": "isotracyca@gmail.com",
    "contact_person": "",
    "contact_person_role": "",
    "latitude": 37.740057,
    "longitude": -121.4509743
  },
  {
    "name": "Jafaria Islamic Society",
    "address": "A, 642 S B St, Tustin, CA 92780",
    "city": "Tustin",
    "state": "California",
    "zip_code": 92780,
    "country": "United States",
    "phone": "323-560-8002",
    "website": "https://www.jafaria.org/jafaria_site/",
    "email_primary": "INFO@JAFARIA.ORG",
    "contact_person": "",
    "contact_person_role": "",
    "latitude": 33.7390655,
    "longitude": -117.8263846
  },
  {
    "name": "Islamic Center of Vallejo",
    "address": "727 Sonoma Blvd, Vallejo, CA 94590",
    "city": "Vallejo",
    "state": "California",
    "zip_code": 94590,
    "country": "United States",
    "phone": "707-558-8229",
    "website": "https://www.islamiccenterofvallejo.org/",
    "email_primary": "",
    "contact_person": "",
    "contact_person_role": "",
    "latitude": 38.0882724,
    "longitude": -122.2444117
  },
  {
    "name": "Masjid Al Ittehad",
    "address": "925 Anza Ave, Vista, CA 92084",
    "city": "Vista",
    "state": "California",
    "zip_code": 92084,
    "country": "United States",
    "phone": "760-954-9544",
    "website": "https://www.masjidalittehad.com/",
    "email_primary": "info@masjidalittehad.com",
    "contact_person": "",
    "contact_person_role": "",
    "latitude": 33.2117886,
    "longitude": -117.2316333
  },
  {
    "name": "Masjid Al-Furqan",
    "address": "659 S Brea Canyon Rd, Diamond Bar, CA 91789",
    "city": "Walnut",
    "state": "California",
    "zip_code": 91789,
    "country": "United States",
    "phone": "909-594-1310",
    "website": "http://markazalfurqaan.org/",
    "email_primary": "info@markazalfurqaan.org",
    "contact_person": "",
    "contact_person_role": "",
    "latitude": 34.0057837,
    "longitude": -117.8482223
  },
  {
    "name": "Masjid Aisha",
    "address": "700 Glide Ave, West Sacramento, CA 95691",
    "city": "West Sacramento",
    "state": "California",
    "zip_code": 95691,
    "country": "United States",
    "phone": "916-372-9031",
    "website": "https://masjidaisha.com/",
    "email_primary": "info@masjidaisha.com",
    "contact_person": "",
    "contact_person_role": "",
    "latitude": 38.5811078,
    "longitude": -121.5452515
  },
  {
    "name": "Salam Islamic Center",
    "address": "Salam Center Mosque, 4545 College Oak Dr, Sacramento, CA 95841",
    "city": "Sacramento",
    "state": "California",
    "zip_code": 95841,
    "country": "United States",
    "phone": "916-979-1933",
    "website": "https://salamcenter.org/",
    "email_primary": "officemanager@salamcenter.org",
    "contact_person": "",
    "contact_person_role": "",
    "latitude": 38.6473778,
    "longitude": -121.3512147
  },
  {
    "name": "Islamic Center of Boulder",
    "address": "1530 Culver Ct, Boulder, CO 80303",
    "city": "Boulder",
    "state": "Colorado",
    "zip_code": 80303,
    "country": "United States",
    "phone": "303-444-6345",
    "website": "https://bouldermuslims.com/",
    "email_primary": "",
    "contact_person": "",
    "contact_person_role": "",
    "latitude": 40.0136067,
    "longitude": -105.2577206
  },
  {
    "name": "Masjid Al-Farooq | Islamic Society of Colorado Springs",
    "address": "2125 N Chestnut St, Colorado Springs, CO 80907",
    "city": "Colorado Springs",
    "state": "Colorado",
    "zip_code": 80907,
    "country": "United States",
    "phone": "719-632-3364",
    "website": "https://iscs.info/",
    "email_primary": "iscs.info.contact@gmail.com",
    "contact_person": "",
    "contact_person_role": "",
    "latitude": 38.863937,
    "longitude": -104.8359346
  },
  {
    "name": "Rocky Mountain Islamic Center",
    "address": "7510 W Mississippi Ave #0, Lakewood, CO 80226",
    "city": "Lakewood",
    "state": "Colorado",
    "zip_code": 80226,
    "country": "United States",
    "phone": "720-583-4463",
    "website": "",
    "email_primary": "rmislamiccenter@gmail.com",
    "contact_person": "",
    "contact_person_role": "",
    "latitude": 39.6956151,
    "longitude": -105.0801732
  },
  {
    "name": "An-Nur Masjid | Deven Islamic Society",
    "address": "2124 S Birch St, Denver, CO 80222",
    "city": "Denver",
    "state": "Colorado",
    "zip_code": 80222,
    "country": "United States",
    "phone": "303-759-1985",
    "website": "",
    "email_primary": "dis.birchstreet@gmail.com",
    "contact_person": "",
    "contact_person_role": "",
    "latitude": 39.6776297,
    "longitude": -104.935989
  },
  {
    "name": "Masjid abu Bakr | Colorado Muslim Society",
    "address": "2071 S Parker Rd, Denver, CO 80231",
    "city": "Denver",
    "state": "Colorado",
    "zip_code": 80231,
    "country": "United States",
    "phone": "303-696-9800",
    "website": "https://coloradomuslimsociety.org/",
    "email_primary": "denvermosque@yahoo.com",
    "contact_person": "",
    "contact_person_role": "",
    "latitude": 39.6789044,
    "longitude": -104.8769873
  },
  {
    "name": "South Denver Islamic Society",
    "address": "7007 S Clinton St, Greenwood Village, CO 80112",
    "city": "Greenwood Village",
    "state": "Colorado",
    "zip_code": 80112,
    "country": "United States",
    "phone": "720-772-7342",
    "website": "https://www.khadeejah.org/",
    "email_primary": "president@masjidkhadeejah.org",
    "contact_person": "",
    "contact_person_role": "",
    "latitude": 39.5895181,
    "longitude": -104.8800331
  },
  {
    "name": "Masjid Ikhlas | Metropolitan Denver North Islamic Center",
    "address": "Irma Dr, Denver, CO 80233",
    "city": "Northglenn",
    "state": "Colorado",
    "zip_code": 80233,
    "country": "United States",
    "phone": "303-920-0252",
    "website": "www.masjidikhlas.org/",
    "email_primary": "office@masjidikhlas.org",
    "contact_person": "",
    "contact_person_role": "",
    "latitude": 39.902607,
    "longitude": -104.9667939
  },
  {
    "name": "Bosmian Educational And Cultural Center",
    "address": "7280 Irving St b206, Westminster, CO 80030",
    "city": "Westminister",
    "state": "Colorado",
    "zip_code": 80030,
    "country": "United States",
    "phone": "303-283-6004",
    "website": "https://becca-chicago.com/",
    "email_primary": "info@bicc-chicago.com",
    "contact_person": "",
    "contact_person_role": "",
    "latitude": 39.8287904,
    "longitude": -105.029041
  },
  {
    "name": "Farmington Valley American Muslim Center",
    "address": "35 Harris Rd, Avon, CT 06001",
    "city": "Avon",
    "state": "Connecticut",
    "zip_code": 6001,
    "country": "United States",
    "phone": "860-673-9680",
    "website": "https://www.fvamc.org/",
    "email_primary": "info@fvamc.org",
    "contact_person": "",
    "contact_person_role": "",
    "latitude": 41.7665175,
    "longitude": -72.8596083
  },
  {
    "name": "Islamic Society of Greater Hartford",
    "address": "1781 Wilbur Cross Hwy, Berlin, CT 06037",
    "city": "Berlin",
    "state": "Connecticut",
    "zip_code": 6037,
    "country": "United States",
    "phone": "860-829-6411",
    "website": "https://www.berlinmosque.org/",
    "email_primary": "webmaster@berlinmosque.or",
    "contact_person": "Dr. Fadi Hammami",
    "contact_person_role": "Co-President",
    "latitude": 41.6031877,
    "longitude": -72.7515077
  },
  {
    "name": "BridgePort Islamic Community Center",
    "address": "525 Clinton Ave, Bridgeport, CT 06605",
    "city": "Bridgeport",
    "state": "Connecticut",
    "zip_code": 6605,
    "country": "United States",
    "phone": "203-362-2527",
    "website": "https://www.mybicc.org/",
    "email_primary": "info@mybicc.org",
    "contact_person": "",
    "contact_person_role": "",
    "latitude": 41.1746635,
    "longitude": -73.2104147
  },
  {
    "name": "Masjid An-Noor | Bridgeport Islamic Society",
    "address": "1300 Fairfield Ave, Bridgeport, CT 06605",
    "city": "Bridgeport",
    "state": "Connecticut",
    "zip_code": 6605,
    "country": "United States",
    "phone": "203-579-221",
    "website": "https://masjidan-noor.com/",
    "email_primary": "media.masjidannoor@gmail.com",
    "contact_person": "",
    "contact_person_role": "",
    "latitude": 41.1741708,
    "longitude": -73.2090201
  },
  {
    "name": "Danbury Masjid | Islamic Society of Western Connecticut",
    "address": "Main St, Danbury, CT 06810",
    "city": "Danbury",
    "state": "Connecticut",
    "zip_code": 6810,
    "country": "United States",
    "phone": "203-744-1328",
    "website": "http://danburymasjid.com/",
    "email_primary": "iswcdanburymasjid@gmail.com",
    "contact_person": "",
    "contact_person_role": "",
    "latitude": 41.3959708,
    "longitude": -73.4539922
  },
  {
    "name": "Masjid Al Hedaya | Muslim Society of Greater Danbury",
    "address": "18 Great Plain Rd, Danbury, CT 06810",
    "city": "Danbury",
    "state": "Connecticut",
    "zip_code": 6810,
    "country": "United States",
    "phone": "203-300-9326",
    "website": "https://hedayacenter.org/",
    "email_primary": "eman.school@gmail.org",
    "contact_person": "",
    "contact_person_role": "",
    "latitude": 41.4140372,
    "longitude": -73.4380481
  },
  {
    "name": "Islamic Center of Connecticut",
    "address": "Hartford, CT 06115",
    "city": "Hartford",
    "state": "Connecticut",
    "zip_code": 6115,
    "country": "United States",
    "phone": "860-249-0112",
    "website": "http://icct.org/",
    "email_primary": "webmaster@icct.org, info@icct.org",
    "contact_person": "",
    "contact_person_role": "",
    "latitude": 41.7650031,
    "longitude": -72.6871781
  },
  {
    "name": "Mosque Baitul Aman",
    "address": "Meriden, CT 06451",
    "city": "Meriden",
    "state": "Connecticut",
    "zip_code": 6451,
    "country": "United States",
    "phone": "860-670-6402",
    "website": "https://edu.ahmadiyya.us/",
    "email_primary": "Connecticut@mkausa.org",
    "contact_person": "",
    "contact_person_role": "",
    "latitude": 41.5385097,
    "longitude": -72.8220064
  },
  {
    "name": "Masjid Al Taqwa",
    "address": "47 St Clair Ave, New Britain, CT 06051",
    "city": "New Britain",
    "state": "Connecticut",
    "zip_code": 6051,
    "country": "United States",
    "phone": "860-223-9131",
    "website": "http://www.altaqwamasjid.com/",
    "email_primary": "masjidaltaqwa@ymail.com",
    "contact_person": "",
    "contact_person_role": "",
    "latitude": 41.6852065,
    "longitude": -72.7592649
  },
  {
    "name": "Islamic Association of Greater Hartford",
    "address": "1781 Berlin Turnpike #0, Berlin, CT 06037",
    "city": "Berlin",
    "state": "Connecticut",
    "zip_code": 6037,
    "country": "United States",
    "phone": "860-829-6411",
    "website": "https://berlinmosque.org/",
    "email_primary": "berlinmo@berlinmosque.org",
    "contact_person": "",
    "contact_person_role": "",
    "latitude": 41.603109,
    "longitude": -72.751505
  },
  {
    "name": "Jafaria Association of Connecticut",
    "address": "1 Meriden Rd, Rockfall, CT 06481",
    "city": "Rockfall",
    "state": "Connecticut",
    "zip_code": 6481,
    "country": "United States",
    "phone": "203-468-2961",
    "website": "https://jaoct.org/",
    "email_primary": "jafariacenter@jaoct.org",
    "contact_person": "",
    "contact_person_role": "",
    "latitude": 41.5484369,
    "longitude": -72.6938647
  },
  {
    "name": "Monre Masjid",
    "address": "57 Pepper St, Monroe, CT 06468",
    "city": "Monroe",
    "state": "Connecticut",
    "zip_code": 6468,
    "country": "United States",
    "phone": "981-787-52625",
    "website": "https://www.monroemasjid.org/",
    "email_primary": "monroemasjid@gmail.com",
    "contact_person": "",
    "contact_person_role": "",
    "latitude": 41.3226526,
    "longitude": -73.2601636
  },
  {
    "name": "Islamic Society of Stamford",
    "address": "82 Harbor Dr, Stamford, CT 06902",
    "city": "Stamford",
    "state": "Connecticut",
    "zip_code": 6902,
    "country": "United States",
    "phone": "203-255-4327",
    "website": "https://www.stamfordislamiccenter.com/",
    "email_primary": "info@stamfordislamiccenter.com",
    "contact_person": "",
    "contact_person_role": "",
    "latitude": 41.0377627,
    "longitude": -73.5293935
  },
  {
    "name": "Stamford Islamic Center",
    "address": "10 Outlook St, Stamford, CT 06902",
    "city": "Stamford",
    "state": "Connecticut",
    "zip_code": 6902,
    "country": "United States",
    "phone": "203-975-2642",
    "website": "https://www.stamfordislamiccenter.com/",
    "email_primary": "info@stamfordislamiccenter.com",
    "contact_person": "",
    "contact_person_role": "",
    "latitude": 41.0408666,
    "longitude": -73.5595037
  },
  {
    "name": "Masjid 'Eesa ibn Maryam | NYC Muslim Center",
    "address": "90-20 191st St, Jamaica, NY 11423",
    "city": "Hollis",
    "state": "New York",
    "zip_code": 11423,
    "country": "United States",
    "phone": "718-776-7291",
    "website": "https://www.masjideesa.org/",
    "email_primary": "info@masjidEesa.org",
    "contact_person": "",
    "contact_person_role": "",
    "latitude": 40.7132376,
    "longitude": -73.7696026
  },
  {
    "name": "United Muslim Masjid",
    "address": "132 Prospect St, Waterbury, CT 06710",
    "city": "Waterbury",
    "state": "Connecticut",
    "zip_code": 6710,
    "country": "United States",
    "phone": "203-756-6365",
    "website": "https://www.ummonline.org/",
    "email_primary": "info@ummonline.org",
    "contact_person": "",
    "contact_person_role": "",
    "latitude": 41.5602422,
    "longitude": -73.0400032
  },
  {
    "name": "Masjid Al-Mostafa",
    "address": "120 Schraffts Dr, Waterbury, CT 06705",
    "city": "Waterbury",
    "state": "Connecticut",
    "zip_code": 6705,
    "country": "United States",
    "phone": "203-597-7676",
    "website": "https://www.iasconnect.org/",
    "email_primary": "iascmasjidmustafa@gmail.com Iasconnect@sbcglobal.net",
    "contact_person": "",
    "contact_person_role": "",
    "latitude": 41.5413189,
    "longitude": -72.9908347
  },
  {
    "name": "Albanian American Culture & Islamic Center",
    "address": "106 Columbia Blvd, Waterbury, CT 06710",
    "city": "Waterbury",
    "state": "Connecticut",
    "zip_code": 6710,
    "country": "United States",
    "phone": "203-755-0687",
    "website": "https://albanianamericanislamiccenter.com/",
    "email_primary": "office@albanianilamiccenter.com",
    "contact_person": "",
    "contact_person_role": "",
    "latitude": 41.568212,
    "longitude": -73.0422803
  },
  {
    "name": "New Haven Islamic Center",
    "address": "2 Pruden St, West Haven, CT 06516",
    "city": "West Haven",
    "state": "Connecticut",
    "zip_code": 6516,
    "country": "United States",
    "phone": "203-937-5799",
    "website": "https://www.nhicct.org/",
    "email_primary": "info@nhicct.org",
    "contact_person": "",
    "contact_person_role": "",
    "latitude": 41.2926328,
    "longitude": -72.9626887
  },
  {
    "name": "Islamic Society of Central Delaware",
    "address": "7953 S Dupont Hwy, Felton, DE 19943",
    "city": "Felton",
    "state": "Delaware",
    "zip_code": 19943,
    "country": "United States",
    "phone": "302-382-2977",
    "website": "http://www.isocde.org/",
    "email_primary": "inquiry@isocde.org",
    "contact_person": "",
    "contact_person_role": "",
    "latitude": 39.0558174,
    "longitude": -75.555122
  },
  {
    "name": "Masjid Ibrahim | Islamic Society of Delaware",
    "address": "28 Salem Church Rd, Newark, DE 19713",
    "city": "Newark",
    "state": "Delaware",
    "zip_code": 19713,
    "country": "United States",
    "phone": "302-733-0273",
    "website": "https://isdonline.org/masjid-ibrahim",
    "email_primary": "info@isdonline.org",
    "contact_person": "",
    "contact_person_role": "",
    "latitude": 39.6758791,
    "longitude": -75.6961224
  },
  {
    "name": "Masjid Isa ibn-e-Maryam Foundation",
    "address": "706 S Old Baltimore Pike, Newark, DE 19702",
    "city": "Newark",
    "state": "Delaware",
    "zip_code": 19702,
    "country": "United States",
    "phone": "302-786-5202",
    "website": "https://tarbiyahschool.org/",
    "email_primary": "admin@masjidsa.org",
    "contact_person": "",
    "contact_person_role": "",
    "latitude": 39.6452537,
    "longitude": -75.7161536
  },
  {
    "name": "Masjid Al Kauthar",
    "address": "2102 Northeast Blvd, Wilmington, DE 19802",
    "city": "Wilmington",
    "state": "Delaware",
    "zip_code": 19802,
    "country": "United States",
    "phone": "302-571-0532",
    "website": "https://masjidalkauthar.org/",
    "email_primary": "weekendschool@masjidalkauthar.org",
    "contact_person": "",
    "contact_person_role": "",
    "latitude": 39.7464751,
    "longitude": -75.530445
  },
  {
    "name": "First Hijrah Muslim Community Center",
    "address": "4324 Georgia Ave NW, Washington, DC 20011",
    "city": "Washington",
    "state": "DC",
    "zip_code": 20011,
    "country": "United States",
    "phone": "703-933-0501",
    "website": "https://firsthijrah.org/",
    "email_primary": "info@firsthijrah.org",
    "contact_person": "",
    "contact_person_role": "",
    "latitude": 38.943623,
    "longitude": -77.026252
  },
  {
    "name": "Masjid Ush Shura | Islamic Center of Greater Southest",
    "address": "3109 Martin Luther King Jr Ave SE, Washington, DC 20032",
    "city": "Washington",
    "state": "DC",
    "zip_code": 20032,
    "country": "United States",
    "phone": "202-487-1024",
    "website": "https://masjidashshura.org/",
    "email_primary": "masjidashshurava@gmail.com",
    "contact_person": "",
    "contact_person_role": "",
    "latitude": 38.8437004,
    "longitude": -76.999572
  },
  {
    "name": "Masjid Muhammad",
    "address": "Washington, DC 20001",
    "city": "Washington",
    "state": "DC",
    "zip_code": 20001,
    "country": "United States",
    "phone": "202-483-8832",
    "website": "https://thenationsmosque.org/",
    "email_primary": "info@thenationsmosque.com",
    "contact_person": "",
    "contact_person_role": "",
    "latitude": 38.912068,
    "longitude": -77.0190228
  },
  {
    "name": "Islamic Center of Boca Raton",
    "address": "3100 NW 5th Ave, Boca Raton, FL 33431",
    "city": "Boca Raton",
    "state": "Florida",
    "zip_code": 33431,
    "country": "United States",
    "phone": "561-395-7221",
    "website": "https://icbr.org/",
    "email_primary": "masjid@icbr.org",
    "contact_person": "",
    "contact_person_role": "",
    "latitude": 26.3797549,
    "longitude": -80.093365
  },
  {
    "name": "Alhuda Islamic Center | Florida Islamic Education Center",
    "address": "831 E Palmetto Park Rd, Boca Raton, FL 33432",
    "city": "Boca Raton",
    "state": "Florida",
    "zip_code": 33432,
    "country": "United States",
    "phone": "561-361-7033",
    "website": "https://www.alhudaglobalschool.org/",
    "email_primary": "global@alhuda.org",
    "contact_person": "",
    "contact_person_role": "",
    "latitude": 26.3508261,
    "longitude": -80.0727435
  },
  {
    "name": "American Islamic Center of Florida",
    "address": "807 N Federal Hwy, Boca Raton, FL 33432",
    "city": "Boca Raton",
    "state": "Florida",
    "zip_code": 33432,
    "country": "United States",
    "phone": "561-900-4330",
    "website": "https://aicfmasjid.com/",
    "email_primary": "aicfmails@gmail.com",
    "contact_person": "",
    "contact_person_role": "",
    "latitude": 26.3582841,
    "longitude": -80.0857223
  },
  {
    "name": "Assalam Center of Boca Raton",
    "address": "1499 NW 4th Ave, Boca Raton, FL 33432",
    "city": "Boca Raton",
    "state": "Florida",
    "zip_code": 33432,
    "country": "United States",
    "phone": "561-391-8285",
    "website": "https://assalamcenter.org/",
    "email_primary": "AssalamCenter96@gmail.com",
    "contact_person": "",
    "contact_person_role": "",
    "latitude": 26.3644535,
    "longitude": -80.0942232
  },
  {
    "name": "Bonita Masjid",
    "address": "28181 Pine Haven Way 137 0, Bonita Springs, FL 34135",
    "city": "Bonita Springs",
    "state": "Florida",
    "zip_code": 34135,
    "country": "United States",
    "phone": 2394448588,
    "website": "https://www.bonitamasjid.com/",
    "email_primary": "info@Bonitamasjid.biz",
    "contact_person": "",
    "contact_person_role": "",
    "latitude": 26.329329,
    "longitude": -81.7720241
  },
  {
    "name": "Al-Amin Center of Florida",
    "address": "8101 S Military Trl, Boynton Beach, FL 33436",
    "city": "Boynton Beach",
    "state": "Florida",
    "zip_code": 33436,
    "country": "United States",
    "phone": "551-859-2296",
    "website": "https://www.alamincenterflorida.org/",
    "email_primary": "info@alamincenter.cemcastbiz.net",
    "contact_person": "",
    "contact_person_role": "",
    "latitude": 26.5560258,
    "longitude": -80.1174282
  },
  {
    "name": "Islamic Center of Brandon",
    "address": "613 E Morgan St, Brandon, FL 33510",
    "city": "Brandon",
    "state": "Florida",
    "zip_code": 33510,
    "country": "United States",
    "phone": "321-243-0693",
    "website": "https://www.brandonmasjid.org/",
    "email_primary": "admin@brandonmasjid.org",
    "contact_person": "",
    "contact_person_role": "",
    "latitude": 27.939709,
    "longitude": -82.2759446
  },
  {
    "name": "Islamic Center of Clermont",
    "address": "15128 Lost Lake Rd, Clermont, FL 34711",
    "city": "Clermont",
    "state": "Florida",
    "zip_code": 34711,
    "country": "United States",
    "phone": "407-267-8320",
    "website": "https://clermontmasjid.org/",
    "email_primary": "haseebikhan@yahoo.com",
    "contact_person": "",
    "contact_person_role": "",
    "latitude": 28.5271756,
    "longitude": -81.704122
  },
  {
    "name": "Islamic Center of South Lake County",
    "address": "1208 Bowman St, Clermont, FL 34711",
    "city": "Clermont",
    "state": "Florida",
    "zip_code": 34711,
    "country": "United States",
    "phone": "352-636-4956",
    "website": "https://www.icoslc.com/",
    "email_primary": "imamshady@yahoo.com",
    "contact_person": "Bro. Amzad Raymond Ally",
    "contact_person_role": "Chairman",
    "latitude": 28.5507181,
    "longitude": -81.7528705
  },
  {
    "name": "Nur Ul Islam Masjid | Nur Ul Islam of South Florida",
    "address": "10600 SW 59th St, Davie, FL 33328",
    "city": "Cooper City",
    "state": "Florida",
    "zip_code": 33328,
    "country": "United States",
    "phone": "954-434-3855",
    "website": "https://nurulislam.org/",
    "email_primary": "nurulislamfl@gmail.com",
    "contact_person": "",
    "contact_person_role": "",
    "latitude": 26.0450708,
    "longitude": -80.2883583
  },
  {
    "name": "Islamic Center of Daytona",
    "address": "Daytona Beach, FL 32114",
    "city": "Daytona Beach",
    "state": "Florida",
    "zip_code": 32114,
    "country": "United States",
    "phone": "386-252-3501",
    "website": "https://ic-db.weebly.com/",
    "email_primary": "info@ic-db.org",
    "contact_person": "",
    "contact_person_role": "",
    "latitude": 29.1987957,
    "longitude": -81.0423429
  },
  {
    "name": "Islamic Society of Cental Florida",
    "address": "1350 Gilpin Ct, Deltona, FL 32725",
    "city": "Deltona",
    "state": "Florida",
    "zip_code": 32725,
    "country": "United States",
    "phone": "386-860-3501",
    "website": "https://iscf.org/",
    "email_primary": "",
    "contact_person": "",
    "contact_person_role": "",
    "latitude": 28.9011185,
    "longitude": -81.2696707
  },
  {
    "name": "Association of Islamic Charitable projects",
    "address": "2820 Griffin Rd, Fort Lauderdale, FL 33312",
    "city": "Fort Lauderdale",
    "state": "Florida",
    "zip_code": 33312,
    "country": "United States",
    "phone": "954-986-1373",
    "website": "https://www.aicp.org/",
    "email_primary": "musallaassultan@gmail.com",
    "contact_person": "",
    "contact_person_role": "",
    "latitude": 26.0620527,
    "longitude": -80.1793765
  },
  {
    "name": "Masjid Al Iman of Fort Lauderdale",
    "address": "2542 Franklin Dr, Fort Lauderdale, FL 33311",
    "city": "Fort Lauderdale",
    "state": "Florida",
    "zip_code": 33311,
    "country": "United States",
    "phone": "954-581-6295",
    "website": "https://masjidaliman.com/",
    "email_primary": "office@masjidaliman.com",
    "contact_person": "",
    "contact_person_role": "",
    "latitude": 26.1347264,
    "longitude": -80.1768521
  },
  {
    "name": "Islamic Center of Broward",
    "address": "8658 NW 44th St, Sunrise, FL 33351",
    "city": "Fort Lauderdale",
    "state": "Florida",
    "zip_code": 33351,
    "country": "United States",
    "phone": "954-741-4214",
    "website": "http://icbfl.com/",
    "email_primary": "icbflorida@gmail.com",
    "contact_person": "",
    "contact_person_role": "",
    "latitude": 26.1783721,
    "longitude": -80.2660636
  },
  {
    "name": "Islamic Center for Peace",
    "address": "2056 Linhart Ave, Fort Myers, FL 33901",
    "city": "Fort Myers",
    "state": "Florida",
    "zip_code": 33901,
    "country": "United States",
    "phone": "239-671-1761",
    "website": "https://iscf.org/",
    "email_primary": "madarani@ic-eace.com",
    "contact_person": "",
    "contact_person_role": "",
    "latitude": 26.6247974,
    "longitude": -81.8707899
  },
  {
    "name": "Center for Islam & Cultural Awareness",
    "address": "2371 Crawford St, Fort Myers, FL 33901",
    "city": "Fort Myers",
    "state": "Florida",
    "zip_code": 33901,
    "country": "United States",
    "phone": "239-334-8778",
    "website": "https://cicaftmyers.org/",
    "email_primary": "cicaftmyers.fl@gmail.com",
    "contact_person": "",
    "contact_person_role": "",
    "latitude": 26.6355457,
    "longitude": -81.8647159
  },
  {
    "name": "House of the Believesrs - Islamic Center of Fort Pierce",
    "address": "3607 Oleander Ave, Fort Pierce, FL 34982",
    "city": "Fort Pierce",
    "state": "Florida",
    "zip_code": 34982,
    "country": "United States",
    "phone": "772-465-9200",
    "website": "https://www.icfp-fl.com/",
    "email_primary": "houseofthebelievers@gmail.com",
    "contact_person": "",
    "contact_person_role": "",
    "latitude": 27.3927265,
    "longitude": -80.3347034
  },
  {
    "name": "Islamic Center of Muslim Friends",
    "address": "Fort Pierce, FL 34950",
    "city": "Ft. Pierce",
    "state": "Florida",
    "zip_code": 34950,
    "country": "United States",
    "phone": "772-462-0242",
    "website": "https://icgmasjid.org/",
    "email_primary": "info@icgmasjid.org",
    "contact_person": "",
    "contact_person_role": "",
    "latitude": 27.4414482,
    "longitude": -80.3268812
  },
  {
    "name": "Hoda Center",
    "address": "5220 SW 13th St, Gainesville, FL 32608",
    "city": "Gainesville",
    "state": "Florida",
    "zip_code": 32608,
    "country": "United States",
    "phone": "352-377-8080",
    "website": "https://hodacenter.org/",
    "email_primary": "hodacenter@hotmail.com",
    "contact_person": "",
    "contact_person_role": "",
    "latitude": 29.6047666,
    "longitude": -82.342879
  },
  {
    "name": "Islamic Center of Gainesville",
    "address": "Gainesville, FL 32601",
    "city": "Gainesville",
    "state": "Florida",
    "zip_code": 32601,
    "country": "United States",
    "phone": "352-372-1980",
    "website": "https://www.iccgfl.org/",
    "email_primary": "socialcoordinator@iccgfl.org",
    "contact_person": "",
    "contact_person_role": "",
    "latitude": 29.6422516,
    "longitude": -82.3289111
  },
  {
    "name": "Islamic Jaffaria Association",
    "address": "10554 NW 132nd St, Hialeah, FL 33018",
    "city": "Hialeah Gardens",
    "state": "Florida",
    "zip_code": 33018,
    "country": "United States",
    "phone": "305-557-6835",
    "website": "https://www.ijamiami.org/",
    "email_primary": "events@ijamiami.org taqi@ijamiami.org",
    "contact_person": "",
    "contact_person_role": "",
    "latitude": 25.8929451,
    "longitude": -80.3710411
  },
  {
    "name": "Islamic Movement of Florida",
    "address": "3201 NW 74th Ave, Hollywood, FL 33024",
    "city": "Hollywood",
    "state": "Florida",
    "zip_code": 33024,
    "country": "United States",
    "phone": "954-894-9110",
    "website": "https://www.imof.org/",
    "email_primary": "info@IMOF.org",
    "contact_person": "",
    "contact_person_role": "",
    "latitude": 26.0377444,
    "longitude": -80.2365098
  },
  {
    "name": "Jamaat Ul Muttaqeen",
    "address": "1010 SW 196th Ave #0, Pembroke Pines, FL 33029",
    "city": "Pembroke Pines",
    "state": "Florida",
    "zip_code": 33029,
    "country": "United States",
    "phone": "954-447-1789",
    "website": "https://mjum.org/",
    "email_primary": "mjum1010@gmail.com",
    "contact_person": "",
    "contact_person_role": "",
    "latitude": 25.9987737,
    "longitude": -80.4092174
  },
  {
    "name": "Masjid Ul Munineen",
    "address": "12850 SW 268th St, Homestead, FL 33032",
    "city": "Homestead",
    "state": "Florida",
    "zip_code": 33032,
    "country": "United States",
    "phone": "305-246-5814",
    "website": "https://www.masjidulmumineen.org/",
    "email_primary": "homesteadmasjid@yahoo.com",
    "contact_person": "",
    "contact_person_role": "",
    "latitude": 25.5179387,
    "longitude": -80.3998087
  },
  {
    "name": "Masjid Al-Ansar",
    "address": "9801 Old Baymeadows Rd Bldg 2 Apt 17, Jacksonville, FL 32256",
    "city": "Jacksonville",
    "state": "Florida",
    "zip_code": 32256,
    "country": "United States",
    "phone": "904-997-9487",
    "website": "https://alansarmosque.sg/",
    "email_primary": "mail@alansar.mosque.sg",
    "contact_person": "",
    "contact_person_role": "",
    "latitude": 30.2216269,
    "longitude": -81.5562506
  },
  {
    "name": "Masjid Al-Salaam",
    "address": "1625 N Pearl St, Jacksonville, FL 32206",
    "city": "Jacksonville",
    "state": "Florida",
    "zip_code": 32206,
    "country": "United States",
    "phone": "904-646-3462",
    "website": "https://www.bcmaburnaby.org/",
    "email_primary": "burnaby@thebcma.com",
    "contact_person": "",
    "contact_person_role": "",
    "latitude": 30.3440345,
    "longitude": -81.6585347
  },
  {
    "name": "Islamic Center of Ne Florida",
    "address": "2333 St Johns Bluff Rd S, Jacksonville, FL 32246",
    "city": "Jacksonville",
    "state": "Florida",
    "zip_code": 32211,
    "country": "United States",
    "phone": "904-646-0980",
    "website": "https://icnef.org/",
    "email_primary": "info@icnef.org",
    "contact_person": "",
    "contact_person_role": "",
    "latitude": 30.3075837,
    "longitude": -81.5251635
  },
  {
    "name": "Masjid Al Noor",
    "address": "3496 Polynesian Isle Blvd, Kissimmee, FL 34746",
    "city": "Kissimmee",
    "state": "Florida",
    "zip_code": 34746,
    "country": "United States",
    "phone": "407-879-0807",
    "website": "https://www.masjid-alnoor.org/",
    "email_primary": "info@masjid-alnoor.org",
    "contact_person": "",
    "contact_person_role": "",
    "latitude": 28.3460122,
    "longitude": -81.4883604
  },
  {
    "name": "Masjid Taqwa | Islamic Center of Osceola County",
    "address": "2417 N Central Ave, Kissimmee, FL 34741",
    "city": "Kissimmee",
    "state": "Florida",
    "zip_code": 34741,
    "country": "United States",
    "phone": "407-944-4353",
    "website": "https://masjidtaqwa.org/",
    "email_primary": "info@masjidtaqwa.org",
    "contact_person": "",
    "contact_person_role": "",
    "latitude": 28.318038,
    "longitude": -81.4086336
  },
  {
    "name": "Masjid Assunah",
    "address": "1535 Pleasant Hill Rd, Kissimmee, FL 34741",
    "city": "Kissimmee",
    "state": "Florida",
    "zip_code": 34741,
    "country": "United States",
    "phone": "407-935-0337",
    "website": "https://masjidassunnah-fl.com/",
    "email_primary": "",
    "contact_person": "",
    "contact_person_role": "",
    "latitude": 28.2640189,
    "longitude": -81.4356885
  },
  {
    "name": "Masjid Al-Bir | Al-Bir Islamic Association",
    "address": "4870 Old Tampa Hwy, Kissimmee, FL 34758",
    "city": "Kissimmee",
    "state": "Florida",
    "zip_code": 34758,
    "country": "United States",
    "phone": "407-879-0807",
    "website": "https://www.albirr.com/",
    "email_primary": "info@albirr.com",
    "contact_person": "",
    "contact_person_role": "",
    "latitude": 28.25776,
    "longitude": -81.4779701
  },
  {
    "name": "Masjid Darul Uloom | Islamic Center of Kissimmee",
    "address": "2350 Old Vineland Rd, Kissimmee, FL 34746",
    "city": "Kissimmee",
    "state": "Florida",
    "zip_code": 34746,
    "country": "United States",
    "phone": "407-390-1100",
    "website": "https://darululoomflorida.org/",
    "email_primary": "imam@darululoomflorida.org",
    "contact_person": "",
    "contact_person_role": "",
    "latitude": 28.3138501,
    "longitude": -81.4615805
  },
  {
    "name": "Leesburg Islamic Center",
    "address": "2201 Montclair Rd, Leesburg, FL 34748",
    "city": "Leesburg",
    "state": "Florida",
    "zip_code": 34748,
    "country": "United States",
    "phone": "352-255-4708",
    "website": "https://loudounislamiccenter.org/",
    "email_primary": "info@loudoumislamiccenter.org",
    "contact_person": "",
    "contact_person_role": "",
    "latitude": 28.8159195,
    "longitude": -81.8977564
  },
  {
    "name": "Islamic Society of Brevard County",
    "address": "550 E Florida Ave, Melbourne, FL 32901",
    "city": "Melbourne",
    "state": "Florida",
    "zip_code": 32901,
    "country": "United States",
    "phone": "321-984-4129",
    "website": "https://www.isbcmelbourne.org/",
    "email_primary": "info@isbcmelbourne.org",
    "contact_person": "",
    "contact_person_role": "",
    "latitude": 28.05736,
    "longitude": -80.6125231
  },
  {
    "name": "Masjid Al-Ansar",
    "address": "5245 NW 7th Ave, Miami, FL 33127",
    "city": "Miami",
    "state": "Florida",
    "zip_code": 33127,
    "country": "United States",
    "phone": "305-757-8741",
    "website": "https://alansarmosque.sg/",
    "email_primary": "mail@alansar.mosque.sg",
    "contact_person": "",
    "contact_person_role": "",
    "latitude": 25.823906,
    "longitude": -80.2078709
  },
  {
    "name": "Nigerian Islamic Society",
    "address": "2410 NW 93rd St, Miami, FL 33147",
    "city": "Miami",
    "state": "Florida",
    "zip_code": 33147,
    "country": "United States",
    "phone": "773-665-2451",
    "website": "https://www.nigeriaislamicassociation.org/",
    "email_primary": "niaexecutiveboard@gmail.com",
    "contact_person": "",
    "contact_person_role": "",
    "latitude": 25.858424,
    "longitude": -80.2385282
  },
  {
    "name": "American Muslim Association of North America",
    "address": "183 NE 166th St, Miami, FL 33162",
    "city": "Miami",
    "state": "Florida",
    "zip_code": 33162,
    "country": "United States",
    "phone": "305-945-0414",
    "website": "https://www.imana.org/",
    "email_primary": "hq@imana.org education@imana.org",
    "contact_person": "",
    "contact_person_role": "",
    "latitude": 25.9274632,
    "longitude": -80.1965215
  },
  {
    "name": "Masjid An-Noor | The Islamic Center of Miami",
    "address": "11699 SW 147th Ave, Miami, FL 33196",
    "city": "Miami",
    "state": "Florida",
    "zip_code": 33196,
    "country": "United States",
    "phone": "305-408-0400",
    "website": "https://islamicschoolofmiami.org/",
    "email_primary": "secretary@islamicschoolofmiami.org",
    "contact_person": "",
    "contact_person_role": "",
    "latitude": 25.6590518,
    "longitude": -80.429419
  },
  {
    "name": "Masjid Miami | Muslim Communitites Association of South Florida",
    "address": "7350 NW 3rd St, Miami, FL 33126",
    "city": "Miami",
    "state": "Florida",
    "zip_code": 33126,
    "country": "United States",
    "phone": "305-261-7622",
    "website": "https://www.miamimuslim.org/",
    "email_primary": "info@miamimuslim.org",
    "contact_person": "",
    "contact_person_role": "",
    "latitude": 25.7734083,
    "longitude": -80.3147169
  },
  {
    "name": "Masjid Al-Hijrah | Caribben-American Islamic Association",
    "address": "6128 SW 27th St, Miramar, FL 33023",
    "city": "Miami",
    "state": "Florida",
    "zip_code": 33023,
    "country": "United States",
    "phone": "121-766-5454",
    "website": "https://alhijrahtrust.org/",
    "email_primary": "admin@alhijrahtrust.org",
    "contact_person": "",
    "contact_person_role": "",
    "latitude": 25.9854772,
    "longitude": -80.2099744
  },
  {
    "name": "Islamic Center of Naples",
    "address": "Naples, FL 34104",
    "city": "Naples",
    "state": "Florida",
    "zip_code": 34104,
    "country": "United States",
    "phone": "239-732-7136",
    "website": "https://icnaples.org/",
    "email_primary": "islamic.center.naples@gmail.com",
    "contact_person": "Br. Mohammed Usman",
    "contact_person_role": "President",
    "latitude": 26.1527657,
    "longitude": -81.7404134
  },
  {
    "name": "Islamic Center of New Port Richey",
    "address": "4715 Grand Blvd, New Port Richey, FL 34652",
    "city": "New Port Richey",
    "state": "Florida",
    "zip_code": 34652,
    "country": "United States",
    "phone": "727-834-9200",
    "website": "https://www.icnpr.org/",
    "email_primary": "askimamicnpr@gmail.com",
    "contact_person": "",
    "contact_person_role": "",
    "latitude": 28.227567,
    "longitude": -82.7245562
  },
  {
    "name": "Islamic Center of Ocala",
    "address": "1410 NE 14th St, Ocala, FL 34470",
    "city": "Ocala",
    "state": "Florida",
    "zip_code": 34470,
    "country": "United States",
    "phone": "352-671-7817",
    "website": "https://islamiccenterofocala.org/",
    "email_primary": "icoo.contact@gmail.com",
    "contact_person": "",
    "contact_person_role": "",
    "latitude": 29.2000968,
    "longitude": -82.1191189
  },
  {
    "name": "Islamic Center of Orange Park",
    "address": "Lake City, FL 32055",
    "city": "Orange Park",
    "state": "Florida",
    "zip_code": 32055,
    "country": "United States",
    "phone": "904-330-4847",
    "website": "https://icopfl.org/",
    "email_primary": "icopfl786@gmail.com",
    "contact_person": "Asad Haque",
    "contact_person_role": "Vice President",
    "latitude": 30.2730727,
    "longitude": -82.605118
  },
  {
    "name": "Masjid Al-Quddus | Islamic Society of Central Florida",
    "address": "S Parramore Ave, Orlando, FL 32805",
    "city": "Orlando",
    "state": "Florida",
    "zip_code": 32807,
    "country": "United States",
    "phone": "407-273-8363",
    "website": "https://iscf.org/masjid/masijid-al-quddus/",
    "email_primary": "imamkhan@iscf.org",
    "contact_person": "",
    "contact_person_role": "",
    "latitude": 28.5286599,
    "longitude": -81.3888721
  },
  {
    "name": "Jama Masjid | Islamic Center of Orlando",
    "address": "11543 Ruby Lake Rd, Orlando, FL 32836",
    "city": "Orlando",
    "state": "Florida",
    "zip_code": 32836,
    "country": "United States",
    "phone": "407-238-2700",
    "website": "https://www.icorlando.org/",
    "email_primary": "info@icorlando.org",
    "contact_person": "",
    "contact_person_role": "",
    "latitude": 28.3984454,
    "longitude": -81.5028205
  },
  {
    "name": "Masjid Al-Rahim | Islamic Society of Central Florida",
    "address": "4962 Old Winter Garden Rd, Orlando, FL 32811",
    "city": "Orlando",
    "state": "Florida",
    "zip_code": 32811,
    "country": "United States",
    "phone": "407-523-7882",
    "website": "https://iscf.org/",
    "email_primary": "icopfl786@gmail.com",
    "contact_person": "Asad Haque",
    "contact_person_role": "Vice President",
    "latitude": 28.542377,
    "longitude": -81.4460469
  },
  {
    "name": "Masjid Malik | Islamic Society of central Florida",
    "address": "2018 Rouse Rd, Orlando, FL 32817",
    "city": "Orlando",
    "state": "Florida",
    "zip_code": 32817,
    "country": "United States",
    "phone": "407-277-0133",
    "website": "https://iscf.org/",
    "email_primary": "icopfl786@gmail.com",
    "contact_person": "Asad Haque",
    "contact_person_role": "Vice President",
    "latitude": 28.5732051,
    "longitude": -81.2247963
  },
  {
    "name": "Masjid Al-Rahman | Islamic Society of central Florida",
    "address": "1089 N Goldenrod Rd, Azalea Park, FL 32807",
    "city": "Orlando",
    "state": "Florida",
    "zip_code": 32807,
    "country": "United States",
    "phone": "407-273-7750",
    "website": "https://iscf.org/",
    "email_primary": "icopfl786@gmail.com mail@iscf.org",
    "contact_person": "Asad Haque",
    "contact_person_role": "Vice President",
    "latitude": 28.5581781,
    "longitude": -81.2853792
  },
  {
    "name": "Masjid Al-Haq | Islamic Society of central Florida",
    "address": "545 W Central Blvd, Orlando, FL 32801",
    "city": "Orlando",
    "state": "Florida",
    "zip_code": 32801,
    "country": "United States",
    "phone": "407-835-9600",
    "website": "https://iscf.org/",
    "email_primary": "icopfl786@gmail.com mail@iscf.org",
    "contact_person": "Asad Haque",
    "contact_person_role": "Vice President",
    "latitude": 28.5423282,
    "longitude": -81.38681
  },
  {
    "name": "Masjid Al-Aziz | Islamic Society of central Florida",
    "address": "9501 Satellite Blvd Unit 110, Orlando, FL 32837",
    "city": "Orlando",
    "state": "Florida",
    "zip_code": 32837,
    "country": "United States",
    "phone": "",
    "website": "https://iscf.org/",
    "email_primary": "icopfl786@gmail.com mail@iscf.org",
    "contact_person": "Asad Haque",
    "contact_person_role": "Vice President",
    "latitude": 28.4205406,
    "longitude": -81.4007073
  },
  {
    "name": "Bay County Islamic Society",
    "address": "3312 Token Rd, Panama City, FL 32405",
    "city": "Panama City",
    "state": "Florida",
    "zip_code": 32405,
    "country": "United States",
    "phone": "850-785-8085",
    "website": "https://baycountyislamicsociety.net/",
    "email_primary": "info@baycountyislamicsociety.net imamamr@gmail.com",
    "contact_person": "",
    "contact_person_role": "",
    "latitude": 30.2080904,
    "longitude": -85.6700152
  },
  {
    "name": "Islamic Center of Pinellass Park",
    "address": "7400 62nd Terrace N, Pinellas Park, FL 33781",
    "city": "Pinellas Park",
    "state": "Florida",
    "zip_code": 33781,
    "country": "United States",
    "phone": "727-520-6615",
    "website": "https://ispc-fl.org/",
    "email_primary": "info@ispc-fl.org",
    "contact_person": "",
    "contact_person_role": "",
    "latitude": 27.8292046,
    "longitude": -82.7402019
  },
  {
    "name": "Islamic Community of Sw Florida",
    "address": "25148 Harbor View Rd, Port Charlotte, FL 33980",
    "city": "Port Charlotte",
    "state": "Florida",
    "zip_code": 33980,
    "country": "United States",
    "phone": "941-625-8855",
    "website": "http://www.islamicswfl.com/site/",
    "email_primary": "azharsudedar@gmail.com",
    "contact_person": "",
    "contact_person_role": "",
    "latitude": 26.9727912,
    "longitude": -82.0369928
  },
  {
    "name": "Masjid Al-Salam | Islamic Society of Cental Florida",
    "address": "2917 S Orlando Dr, Sanford, FL 32773",
    "city": "Sanford",
    "state": "Florida",
    "zip_code": 32773,
    "country": "United States",
    "phone": "",
    "website": "https://iscf.org/masjid/masjid-al-salaam/",
    "email_primary": "icopfl786@gmail.com mail@iscf.org",
    "contact_person": "Asad Haque",
    "contact_person_role": "Vice President",
    "latitude": 28.7732792,
    "longitude": -81.2779724
  },
  {
    "name": "Islamic Society of Sarasota & Bradenton",
    "address": "4350 N Lockwood Ridge Rd, Sarasota, FL 34235",
    "city": "Sarasota",
    "state": "Florida",
    "zip_code": 34234,
    "country": "United States",
    "phone": "941-351-3393",
    "website": "https://issb.net/",
    "email_primary": "info@issb.net",
    "contact_person": "",
    "contact_person_role": "",
    "latitude": 27.3723722,
    "longitude": -82.5040895
  },
  {
    "name": "Masjid Al-Jaber | Islamic Society of Central Florida",
    "address": "5186 Schumacher Rd, Sebring, FL 33872",
    "city": "Sebring",
    "state": "Florida",
    "zip_code": 33872,
    "country": "United States",
    "phone": "386-860-9663",
    "website": "https://iscf.org/masjid/masjid-al-jabbar/",
    "email_primary": "icopfl786@gmail.com mail@iscf.org",
    "contact_person": "Asad Haque",
    "contact_person_role": "Vice President",
    "latitude": 27.5151186,
    "longitude": -81.5197781
  },
  {
    "name": "Masjid Al-Muminin",
    "address": "2401 6th St S, St. Petersburg, FL 33705",
    "city": "St. Petersburg",
    "state": "Florida",
    "zip_code": 33705,
    "country": "United States",
    "phone": "727-288-3636",
    "website": "",
    "email_primary": "admin@isspmosque.com",
    "contact_person": "",
    "contact_person_role": "",
    "latitude": 27.7463165,
    "longitude": -82.6404548
  },
  {
    "name": "Islamic Foundation of South Florida",
    "address": "5457 NW 108th Ave, Sunrise, FL 33351",
    "city": "Sunrise",
    "state": "Florida",
    "zip_code": 33351,
    "country": "United States",
    "phone": "954-741-8130",
    "website": "https://ifsf.net/",
    "email_primary": "info@ifsf.net",
    "contact_person": "",
    "contact_person_role": "",
    "latitude": 26.1916051,
    "longitude": -80.2927856
  },
  {
    "name": "Islamic Center of Tallahassee",
    "address": "1020 W Pensacola St, Tallahassee, FL 32304",
    "city": "Tallahassee",
    "state": "Florida",
    "zip_code": 32304,
    "country": "United States",
    "phone": "850-681-9022",
    "website": "https://ictallahassee.org/",
    "email_primary": "tallahassee.islamic.center@gmail.com",
    "contact_person": "",
    "contact_person_role": "",
    "latitude": 30.4390896,
    "longitude": -84.2996697
  },
  {
    "name": "Masjid Al-Furqan | Islamic Community of Tallahassee",
    "address": "3617 Old Bainbridge Rd, Tallahassee, FL 32303",
    "city": "Tallahassee",
    "state": "Florida",
    "zip_code": 32303,
    "country": "United States",
    "phone": "850-514-0100",
    "website": "https://ictallahassee.org/",
    "email_primary": "tallahassee.islamic.center@gmail.com",
    "contact_person": "",
    "contact_person_role": "",
    "latitude": 30.502387,
    "longitude": -84.3387782
  },
  {
    "name": "Masjid Al-Qassam | Islamic Community of Tampa",
    "address": "5910 E 130th Ave, Tampa, FL 33617",
    "city": "Tampa",
    "state": "Florida",
    "zip_code": 33617,
    "country": "United States",
    "phone": "813-985-9433",
    "website": "https://ictampa.org/",
    "email_primary": "hatemfariz5262010@yahoo.com ict@ictampa.com",
    "contact_person": "Sh. Ahmed Sharaf",
    "contact_person_role": "Imam",
    "latitude": 28.0651765,
    "longitude": -82.3896796
  },
  {
    "name": "Mas Youth Center | Muslim American Society",
    "address": "12226 N 56th St, Temple Terrace, FL 33617",
    "city": "Tampa",
    "state": "Florida",
    "zip_code": 33617,
    "country": "United States",
    "phone": "813-899-2267",
    "website": "https://www.masyc.org/",
    "email_primary": "myc.operations@masnewyork.org",
    "contact_person": "",
    "contact_person_role": "",
    "latitude": 28.0589598,
    "longitude": -82.3942348
  },
  {
    "name": "Islamic Society of Tampa Bay Area",
    "address": "7326 E Sligh Ave, Tampa, FL 33610",
    "city": "Tampa",
    "state": "Florida",
    "zip_code": 33610,
    "country": "United States",
    "phone": "813-628-0007",
    "website": "https://www.istaba.org/",
    "email_primary": "mainoffice@istaba.org",
    "contact_person": "Sr. Mariam Razak",
    "contact_person_role": "Hifz Academy",
    "latitude": 28.0114183,
    "longitude": -82.3740688
  },
  {
    "name": "Dar-Us Salaam | Islamic Society of New Tampa",
    "address": "15830 Morris Bridge Rd, Thonotosassa, FL 33592",
    "city": "Thonotosassa",
    "state": "Florida",
    "zip_code": 33592,
    "country": "United States",
    "phone": "",
    "website": "https://www.newtampamasjid.org/",
    "email_primary": "info@newtampamasjid.org",
    "contact_person": "",
    "contact_person_role": "",
    "latitude": 28.148265,
    "longitude": -82.280566
  },
  {
    "name": "Masjid Al-Mumin | Islamic Society of Central Florida",
    "address": "US-1, Titusville, FL",
    "city": "Titusville",
    "state": "Florida",
    "zip_code": 32780,
    "country": "United States",
    "phone": "321-268-1833",
    "website": "https://iscf.org/masjid/masjid-al-jabbar/",
    "email_primary": "icopfl786@gmail.com mail@iscf.org",
    "contact_person": "Asad Haque",
    "contact_person_role": "Vice President",
    "latitude": 28.5750049,
    "longitude": -80.7989482
  },
  {
    "name": "Muslim Association of Hawaii",
    "address": "1935 Aleo Pl, Honolulu, HI 96822",
    "city": "Honolulu",
    "state": "Hawaii",
    "zip_code": 96822,
    "country": "United States",
    "phone": "808-947-6263",
    "website": "https://www.hawaiimasjid.com",
    "email_primary": "contact@hawaiimasjid.com",
    "contact_person": "",
    "contact_person_role": "",
    "latitude": 21.308669,
    "longitude": -157.8212803
  },
  {
    "name": "Islamic Center of Boise",
    "address": "2719 W Stewart Ave, Boise, ID 83702",
    "city": "Boise",
    "state": "Idaho",
    "zip_code": 83702,
    "country": "United States",
    "phone": "208-429-1866",
    "website": "https://boisemuslims.org/",
    "email_primary": "boisemuslims@yahoo.com",
    "contact_person": "",
    "contact_person_role": "",
    "latitude": 43.6287512,
    "longitude": -116.2249154
  },
  {
    "name": "American Muslim Community Organization",
    "address": "1548 E Algonquin Rd, Algonquin, IL 60102",
    "city": "Algonquin",
    "state": "Illinois",
    "zip_code": 60102,
    "country": "United States",
    "phone": "847-604-4818",
    "website": "https://www.amco.org/",
    "email_primary": "info@McHenryMuslims.org",
    "contact_person": "",
    "contact_person_role": "",
    "latitude": 42.1600079,
    "longitude": -88.2726187
  },
  {
    "name": "Fox Vally Muslim Community Center",
    "address": "1187 Timberlake Dr, Aurora, IL 60506",
    "city": "Aurora",
    "state": "Illinois",
    "zip_code": 60506,
    "country": "United States",
    "phone": "630-810-7729",
    "website": "http://www.auroramasjid.org/",
    "email_primary": "auroramasjid@gmail.com",
    "contact_person": "",
    "contact_person_role": "",
    "latitude": 41.7807151,
    "longitude": -88.3531126
  },
  {
    "name": "Al-Azhar Islamic Foundation",
    "address": "160 Hawthorne Rd, Barrington, IL 60010",
    "city": "Barrington",
    "state": "Illinois",
    "zip_code": 60010,
    "country": "United States",
    "phone": "847-277-9910",
    "website": "https://www.aifcenter.org/",
    "email_primary": "best_box69@hotmail.com secretary@azharamerica.org",
    "contact_person": "",
    "contact_person_role": "",
    "latitude": 42.120394,
    "longitude": -88.169775
  },
  {
    "name": "Belleville Mosque & Islamic Education Center",
    "address": "4525 Old Collinsville Rd, Belleville, IL 62226",
    "city": "Belleville",
    "state": "Illinois",
    "zip_code": 622226,
    "country": "United States",
    "phone": "618-222-9055",
    "website": "",
    "email_primary": "bellevile@stislam.org",
    "contact_person": "",
    "contact_person_role": "",
    "latitude": 38.5653864,
    "longitude": -89.9651228
  },
  {
    "name": "Masjid Ibrahim",
    "address": "2407 E Washington St, Bloomington, IL 61704",
    "city": "Bloomington",
    "state": "Illinois",
    "zip_code": 61704,
    "country": "United States",
    "phone": "309-663-2828",
    "website": "https://icmclean.org/",
    "email_primary": "imam@icmclean.org",
    "contact_person": "",
    "contact_person_role": "",
    "latitude": 40.4794518,
    "longitude": -88.9489073
  },
  {
    "name": "Islamic Center of Bloomington-Normal",
    "address": "2911 Gill St STE 6, Bloomington, IL 61704",
    "city": "Bloomington",
    "state": "Illinois",
    "zip_code": 61704,
    "country": "United States",
    "phone": "309-664-0304",
    "website": "https://www.icob.org/",
    "email_primary": "imam.icob@gmail.com",
    "contact_person": "",
    "contact_person_role": "",
    "latitude": 40.5007168,
    "longitude": -88.9280187
  },
  {
    "name": "Masjid Al-Islam | Muslim Association of Boilingbrook",
    "address": "W N Frontage Rd, Bolingbrook, IL 60440",
    "city": "Bolingbrook",
    "state": "Illinois",
    "zip_code": 60440,
    "country": "United States",
    "phone": "630-972-0701",
    "website": "https://bolingbrookmasjid.com/",
    "email_primary": "info@bolingbrookmasjid.com",
    "contact_person": "",
    "contact_person_role": "",
    "latitude": 41.679195,
    "longitude": -88.0797142
  },
  {
    "name": "Mosque Foundation of Chicago",
    "address": "7360 W 93rd St, Bridgeview, IL 60455",
    "city": "Bridgeview",
    "state": "Illinois",
    "zip_code": 60455,
    "country": "United States",
    "phone": "708-430-5666",
    "website": "https://mosquefoundation.org/",
    "email_primary": "info@mosquefoundation.org",
    "contact_person": "",
    "contact_person_role": "",
    "latitude": 41.7228434,
    "longitude": -87.8029979
  },
  {
    "name": "Masjid An-Nur | Carbondale Muslim Center",
    "address": "504 S Wall St, Carbondale, IL 62901",
    "city": "Carbondale",
    "state": "Illinois",
    "zip_code": 62901,
    "country": "United States",
    "phone": "618-533-6522",
    "website": "https://carbondalemuslimcenter.com/",
    "email_primary": "carbondalemosque@gmail.com",
    "contact_person": "",
    "contact_person_role": "",
    "latitude": 37.7221636,
    "longitude": -89.2090118
  },
  {
    "name": "Muslim Community Center",
    "address": "4380 N Elston Ave, Chicago, IL 60641",
    "city": "Chicago",
    "state": "Illinois",
    "zip_code": 60641,
    "country": "United States",
    "phone": "773-777-7443",
    "website": "https://mccchicago.org/",
    "email_primary": "Counseling@mcchicago.org",
    "contact_person": "",
    "contact_person_role": "",
    "latitude": 41.960297,
    "longitude": -87.7289523
  },
  {
    "name": "Chicago Islamic Center - CIC",
    "address": "3357 W 63rd St, Chicago, IL 60629",
    "city": "Chicago",
    "state": "Illinois",
    "zip_code": 60629,
    "country": "United States",
    "phone": "773-436-8083",
    "website": "",
    "email_primary": "chicagomasque@yahoo.com",
    "contact_person": "",
    "contact_person_role": "",
    "latitude": 41.7786232,
    "longitude": -87.7077553
  },
  {
    "name": "Faizan e Madinah Chicago",
    "address": "6305 N Ridge Blvd, Chicago, IL 60660",
    "city": "Chicago",
    "state": "Illinois",
    "zip_code": 60626,
    "country": "United States",
    "phone": "773-465-7875",
    "website": "https://www.dawateislamiusa.com/",
    "email_primary": "dawateislamichicagousa@gmail.com",
    "contact_person": "",
    "contact_person_role": "",
    "latitude": 41.9958055,
    "longitude": -87.6756971
  },
  {
    "name": "Islamic Center of Chicago | At-Takaful Islamic Society",
    "address": "5933 N Lincoln Ave, Chicago, IL 60659",
    "city": "Chicago",
    "state": "Illinois",
    "zip_code": 60659,
    "country": "United States",
    "phone": "773-989-9330",
    "website": "https://www.icconline.org/",
    "email_primary": "info@icconline.org",
    "contact_person": "",
    "contact_person_role": "",
    "latitude": 41.9892326,
    "longitude": -87.7049772
  },
  {
    "name": "The Ephraim Bahar Cultural Center",
    "address": "2525 W 71st St, Chicago, IL 60629",
    "city": "Chicago",
    "state": "Illinois",
    "zip_code": 60629,
    "country": "United States",
    "phone": "773-476-8825",
    "website": "https://ebaharcenter.com/",
    "email_primary": "baharinfo2525@gmail.com",
    "contact_person": "",
    "contact_person_role": "",
    "latitude": 41.7643933,
    "longitude": -87.6867535
  },
  {
    "name": "Islamic Community Center of Illinois",
    "address": "6435 W Belmont Ave, Chicago, IL 60634",
    "city": "Chicago",
    "state": "Illinois",
    "zip_code": 60634,
    "country": "United States",
    "phone": "773-637-3755",
    "website": "https://iccicenter.org/",
    "email_primary": "contact@iccicenter.org",
    "contact_person": "",
    "contact_person_role": "",
    "latitude": 41.9379618,
    "longitude": -87.7873622
  },
  {
    "name": "Al-Farooq Mosque",
    "address": "8950 S Stony Is Ave, Chicago, IL 60617",
    "city": "Chicago",
    "state": "Illinois",
    "zip_code": 60649,
    "country": "United States",
    "phone": "773-752-2015",
    "website": "https://www.mafchicago.com/",
    "email_primary": "masjid.alfarooq@yahoo.com",
    "contact_person": "",
    "contact_person_role": "",
    "latitude": 41.7317225,
    "longitude": -87.585999
  },
  {
    "name": "Masjid-E-Sayed Hashim | Mahdavia Islamic Center of Chicago",
    "address": "7419 N Western Ave, Chicago, IL 60645",
    "city": "Chicago",
    "state": "Illinois",
    "zip_code": 60645,
    "country": "United States",
    "phone": "773-262-6680",
    "website": "https://www.miccusa.org/",
    "email_primary": "mahdaviacenter@gmail.com",
    "contact_person": "",
    "contact_person_role": "",
    "latitude": 42.0162727,
    "longitude": -87.6899998
  },
  {
    "name": "Masjid Al-Muhajireen",
    "address": "3777 W Columbus Ave, Chicago, IL 60652",
    "city": "Chicago",
    "state": "Illinois",
    "zip_code": 60652,
    "country": "United States",
    "phone": "773-581-1083",
    "website": "https://www.masjidmuhajireen.org/",
    "email_primary": "info@masjidmuhajireen.org",
    "contact_person": "",
    "contact_person_role": "",
    "latitude": 41.739776,
    "longitude": -87.7155782
  },
  {
    "name": "Islamic Society of Midwest",
    "address": "501 Midway Dr, Mt Prospect, IL 60056",
    "city": "Mt Prospect",
    "state": "Illinois",
    "zip_code": 60056,
    "country": "United States",
    "phone": "201-238-6203",
    "website": "https://www.islamicsom.org/",
    "email_primary": "info@islamicsom.org",
    "contact_person": "",
    "contact_person_role": "",
    "latitude": 42.0253357,
    "longitude": -87.9434368
  },
  {
    "name": "Masom | Midwest Association of Shia Organized Muslims",
    "address": "4353 W Lawrence Ave, Chicago, IL 60630",
    "city": "Chicago",
    "state": "Illinois",
    "zip_code": 60630,
    "country": "United States",
    "phone": "847-507-2171",
    "website": "https://masom.com/",
    "email_primary": "secretary@masom.com",
    "contact_person": "",
    "contact_person_role": "",
    "latitude": 41.9678728,
    "longitude": -87.7375263
  },
  {
    "name": "Masjid At-Tawheed Chicago",
    "address": "8726 S Halsted St, Chicago, IL 60620",
    "city": "Chicago",
    "state": "Illinois",
    "zip_code": 60620,
    "country": "United States",
    "phone": "773-487-9368",
    "website": "https://www.masjidattawheedchicag.org/",
    "email_primary": "tawheedislamicenter@gmail.com",
    "contact_person": "",
    "contact_person_role": "",
    "latitude": 41.7350411,
    "longitude": -87.6438717
  },
  {
    "name": "Masjid Abbu Bakar Siddiq R. A",
    "address": "1017 W Roscoe St, Chicago, IL 60657",
    "city": "Chicago",
    "state": "Illinois",
    "zip_code": 60657,
    "country": "United States",
    "phone": "312-281-9551",
    "website": "",
    "email_primary": "",
    "contact_person": "",
    "contact_person_role": "",
    "latitude": 41.9434203,
    "longitude": -87.6551266
  },
  {
    "name": "Dar Al Taqwa",
    "address": "10740 MD-108, Ellicott City, MD 21042",
    "city": "Ellicott City",
    "state": "Maryland",
    "zip_code": 21042,
    "country": "United States",
    "phone": "410-997-5711",
    "website": "https://taqwa.net/",
    "email_primary": "info@taqwa.net",
    "contact_person": "",
    "contact_person_role": "",
    "latitude": 39.2364783,
    "longitude": -76.884707
  },
  {
    "name": "Makki Masjid",
    "address": "3418 W Ainslie St, Chicago, IL 60625",
    "city": "Chicago",
    "state": "Illinois",
    "zip_code": 60625,
    "country": "United States",
    "phone": "773-588-8865",
    "website": "https://makkimasjid.com/",
    "email_primary": "info@makkimasjid.com",
    "contact_person": "",
    "contact_person_role": "",
    "latitude": 41.9704076,
    "longitude": -87.7143712
  },
  {
    "name": "Downtown Islamic Center",
    "address": "231 S State St Floor 4th, Chicago, IL 60604",
    "city": "Chicago",
    "state": "Illinois",
    "zip_code": 60604,
    "country": "United States",
    "phone": "312-939-9095",
    "website": "https://www.dtislamiccenter.org/",
    "email_primary": "info@dic-chicago.org dic231@gmail.com",
    "contact_person": "",
    "contact_person_role": "",
    "latitude": 41.878699,
    "longitude": -87.627247
  },
  {
    "name": "Masjid e Ayesha Chicago",
    "address": "Chicago, IL 60659",
    "city": "Chicago",
    "state": "Illinois",
    "zip_code": 60659,
    "country": "United States",
    "phone": "773-691-8218",
    "website": "https://www.turabi.org/home",
    "email_primary": "masjideayesha@turabi.org",
    "contact_person": "",
    "contact_person_role": "",
    "latitude": 41.9909198,
    "longitude": -87.7024817
  },
  {
    "name": "Turkish American Cultural Alliance",
    "address": "3745 N Harlem Ave, Chicago, IL 60634",
    "city": "Chicago",
    "state": "Illinois",
    "zip_code": 60634,
    "country": "United States",
    "phone": "509-695-1487",
    "website": "https://www.tacaonline.org/",
    "email_primary": "taca@tacaonline.org",
    "contact_person": "",
    "contact_person_role": "",
    "latitude": 41.9483895,
    "longitude": -87.8071043
  },
  {
    "name": "ICNA-Chicago",
    "address": "6224 N California Ave, Chicago, IL 60659",
    "city": "Chicago",
    "state": "Illinois",
    "zip_code": 60659,
    "country": "United States",
    "phone": "866-497-9037",
    "website": "https://www.icnachicago.org/",
    "email_primary": "",
    "contact_person": "",
    "contact_person_role": "",
    "latitude": 41.994752,
    "longitude": -87.699804
  },
  {
    "name": "Nigerian Islamic Association",
    "address": "932 W Sheridan Rd, Chicago, IL 60613",
    "city": "Chicago",
    "state": "Illinois",
    "zip_code": 60613,
    "country": "United States",
    "phone": "773-665-2451",
    "website": "https://www.nigeriaislamicassociation.org/",
    "email_primary": "niaexecutiveboard@gmail.com",
    "contact_person": "",
    "contact_person_role": "",
    "latitude": 41.9529492,
    "longitude": -87.6535236
  },
  {
    "name": "Islamic Center of Mchenry County",
    "address": "East St, Crystal Lake, IL 60014",
    "city": "Crystal Lake",
    "state": "Illinois",
    "zip_code": 60014,
    "country": "United States",
    "phone": "815-893-6005",
    "website": "https://icmc-us.org/",
    "email_primary": "admin@icmc-us.org",
    "contact_person": "",
    "contact_person_role": "",
    "latitude": 42.243613,
    "longitude": -88.311117
  },
  {
    "name": "Masjid Wali Hasan | Islamic Center of Decatur",
    "address": "1635 Huston Dr, Decatur, IL 62526",
    "city": "Decatur",
    "state": "Illinois",
    "zip_code": 62526,
    "country": "United States",
    "phone": "217-877-2863",
    "website": "https://masjidwh.org/",
    "email_primary": "contact@masjidwalihasan.org",
    "contact_person": "",
    "contact_person_role": "",
    "latitude": 39.879168,
    "longitude": -88.9345795
  },
  {
    "name": "Islamic Community of Center of Des Plains",
    "address": "480 Potter Rd, Des Plaines, IL 60016",
    "city": "Des Plains",
    "state": "Illinois",
    "zip_code": 60016,
    "country": "United States",
    "phone": "847-824-1100",
    "website": "https://iccofdesplaines.org/",
    "email_primary": "admin@islamiccommunitycenter.com",
    "contact_person": "",
    "contact_person_role": "",
    "latitude": 42.0454049,
    "longitude": -87.8608835
  },
  {
    "name": "Institute of Islamic Education | Masjid Al-Islam",
    "address": "1048 Bluff City Blvd, Elgin, IL 60120",
    "city": "Elgin",
    "state": "Illinois",
    "zip_code": 60120,
    "country": "United States",
    "phone": "847-695-4685",
    "website": "https://www.islamicedu.org/",
    "email_primary": "admissions@islamicedu.org lie.office@islamicedu.org",
    "contact_person": "",
    "contact_person_role": "",
    "latitude": 42.0198561,
    "longitude": -88.2507956
  },
  {
    "name": "Islamic Community Center",
    "address": "345 Heine Ave, Elgin, IL 60123",
    "city": "Elgin",
    "state": "Illinois",
    "zip_code": 60123,
    "country": "United States",
    "phone": "847-695-3338",
    "website": "https://www.iccelgin.com/",
    "email_primary": "",
    "contact_person": "",
    "contact_person_role": "",
    "latitude": 42.0426695,
    "longitude": -88.312883
  },
  {
    "name": "Dar-Us-Sunnah Masjid and Comm Center",
    "address": "2045 Brown Ave, Evanston, IL 60201",
    "city": "Evanston",
    "state": "Illinois",
    "zip_code": 60201,
    "country": "United States",
    "phone": "773-554-8254",
    "website": "https://www.darussunnah.org/",
    "email_primary": "zahmed22@sbcglobal.net",
    "contact_person": "",
    "contact_person_role": "",
    "latitude": 42.0553859,
    "longitude": -87.6999117
  },
  {
    "name": "Islamic Education Center | Husaini Association of Greater Chicago",
    "address": "1269 Goodrich Ave, Glendale Heights, IL 60139",
    "city": "Glendale Heights",
    "state": "Illinois",
    "zip_code": 60139,
    "country": "United States",
    "phone": "630-469-5533",
    "website": "https://www.iechusaini.org/",
    "email_primary": "",
    "contact_person": "",
    "contact_person_role": "",
    "latitude": 41.905839,
    "longitude": -88.0571657
  },
  {
    "name": "Msulim Society",
    "address": "1785 Bloomingdale Rd, Glendale Heights, IL 60139",
    "city": "Glendale Heights",
    "state": "Illinois",
    "zip_code": 60139,
    "country": "United States",
    "phone": "630-653-7872",
    "website": "https://www.muslimsocietyinc.org/",
    "email_primary": "",
    "contact_person": "",
    "contact_person_role": "",
    "latitude": 41.9240867,
    "longitude": -88.080725
  },
  {
    "name": "Albanian American Islamic Center",
    "address": "W St Charles Rd, Illinois 60148",
    "city": "Hillsdale",
    "state": "Illinois",
    "zip_code": 60163,
    "country": "United States",
    "phone": "708-544-2609",
    "website": "https://albanianamericanislamiccenter.com/",
    "email_primary": "abdulbaseer12@yahoo.com",
    "contact_person": "",
    "contact_person_role": "",
    "latitude": 41.8866749,
    "longitude": -88.0300954
  },
  {
    "name": "Islamic Foundation North",
    "address": "1751 O'Plaine Rd, Libertyville, IL 60048",
    "city": "Liberryville",
    "state": "Illinois",
    "zip_code": 60048,
    "country": "United States",
    "phone": "847-406-3730",
    "website": "https://ifnonline.com/",
    "email_primary": "ifnmasjid@ifnonline.com",
    "contact_person": "",
    "contact_person_role": "",
    "latitude": 42.3279858,
    "longitude": -87.9131442
  },
  {
    "name": "Al-Masjidul-Huq",
    "address": "1620 S Highland Ave, Lombard, IL 60148",
    "city": "Lombard",
    "state": "Illinois",
    "zip_code": 60148,
    "country": "United States",
    "phone": "630-519-4336",
    "website": "https://www.masjidhaqq.org/",
    "email_primary": "masjidhaqq@gmail.com",
    "contact_person": "",
    "contact_person_role": "",
    "latitude": 41.8518928,
    "longitude": -88.012457
  },
  {
    "name": "Masjid DarusSalam",
    "address": "21W308 North Ave, Lombard, IL 60148",
    "city": "Lombard",
    "state": "Illinois",
    "zip_code": 60148,
    "country": "United States",
    "phone": "630-847-6492",
    "website": "",
    "email_primary": "info@dsfnd.org",
    "contact_person": "",
    "contact_person_role": "",
    "latitude": 41.904732,
    "longitude": -88.040111
  },
  {
    "name": "Islamic Center of Macomb",
    "address": "601 Wigwam Hollow Rd, Macomb, IL 61455",
    "city": "Macomb",
    "state": "Illinois",
    "zip_code": 61455,
    "country": "United States",
    "phone": "309-833-3875",
    "website": "https://www.islammacomb.org/",
    "email_primary": "msa@wiu.edu",
    "contact_person": "",
    "contact_person_role": "",
    "latitude": 40.4668819,
    "longitude": -90.6940791
  },
  {
    "name": "Masjid Al-Ihsan | Islamic Center of Quad Cities",
    "address": "6005 34th Ave, Moline, IL 61265",
    "city": "Moline",
    "state": "Illinois",
    "zip_code": 61265,
    "country": "United States",
    "phone": "309-792-1690",
    "website": "https://icqconline.org/",
    "email_primary": "imamicqc@gmail.com emaanali98@gmail.com",
    "contact_person": "Br. Djima Bello",
    "contact_person_role": "Chairman",
    "latitude": 41.479094,
    "longitude": -90.4559493
  },
  {
    "name": "Muslim Education Center",
    "address": "8601 Menard Ave, Morton Grove, IL 60053",
    "city": "Morton Grove",
    "state": "Illinois",
    "zip_code": 60053,
    "country": "United States",
    "phone": "847-470-8801",
    "website": "https://mccchicago.org/",
    "email_primary": "",
    "contact_person": "",
    "contact_person_role": "",
    "latitude": 42.0375308,
    "longitude": -87.7711868
  },
  {
    "name": "Islamic Center of Naperville-Al-Hilal",
    "address": "2844 W Ogden Ave, Naperville, IL 60540",
    "city": "Naperville",
    "state": "Illinois",
    "zip_code": 60540,
    "country": "United States",
    "phone": "630-428-3733",
    "website": "https://islamiccenterofnaperville.org/",
    "email_primary": "",
    "contact_person": "",
    "contact_person_role": "",
    "latitude": 41.753877,
    "longitude": -88.201401
  },
  {
    "name": "Islamic Center of Naperville",
    "address": "25W530 75th St, Naperville, IL 60565",
    "city": "Naperville",
    "state": "Illinois",
    "zip_code": 60565,
    "country": "United States",
    "phone": "630-355-3733",
    "website": "https://islamiccenterofnaperville.org/",
    "email_primary": "",
    "contact_person": "",
    "contact_person_role": "",
    "latitude": 41.7492808,
    "longitude": -88.1215595
  },
  {
    "name": "Islamic Cultural Center of Greater Chicago",
    "address": "N Pfingsten Rd, Deerfield, IL 60015",
    "city": "Northbrook",
    "state": "Illinois",
    "zip_code": 60062,
    "country": "United States",
    "phone": "847-272-0319",
    "website": "https://islamiccenterofnaperville.org/",
    "email_primary": "",
    "contact_person": "",
    "contact_person_role": "",
    "latitude": 42.1572468,
    "longitude": -87.8462059
  },
  {
    "name": "The Prayer Center of Orland Park",
    "address": "16530 104th Ave, Orland Park, IL 60467",
    "city": "Orland Park",
    "state": "Illinois",
    "zip_code": 60467,
    "country": "United States",
    "phone": "708-349-6592",
    "website": "https://orlandparkprayercenter.org/",
    "email_primary": "info@op-pc.org",
    "contact_person": "",
    "contact_person_role": "",
    "latitude": 41.5895557,
    "longitude": -87.8723519
  },
  {
    "name": "Islamic Center of Peoria",
    "address": "Peoria, IL 61605",
    "city": "Peoria",
    "state": "Illinois",
    "zip_code": 61605,
    "country": "United States",
    "phone": "309-688-4605",
    "website": "https://icpeoria.org/",
    "email_primary": "info@icpeoria.org",
    "contact_person": "",
    "contact_person_role": "",
    "latitude": 40.6696506,
    "longitude": -89.6392863
  },
  {
    "name": "Islamic Foundation of Peoria",
    "address": "823 West Salaam Drive, Peoria, IL 61615",
    "city": "Peoria",
    "state": "Illinois",
    "zip_code": 61615,
    "country": "United States",
    "phone": "309-691-8195",
    "website": "https://ifpeoria.org/",
    "email_primary": "drazizrehman@yahoo.com imam@imammazhar.com",
    "contact_person": "",
    "contact_person_role": "",
    "latitude": 40.7868283,
    "longitude": -89.6052238
  },
  {
    "name": "Al-Aqsa Community Center",
    "address": "17940 Bronk Rd, Plainfield, IL 60586",
    "city": "Plainfield",
    "state": "Illinois",
    "zip_code": 60586,
    "country": "United States",
    "phone": "815-230-0786",
    "website": "https://plainfieldmasjid.com/",
    "email_primary": "info@plainfieldmasjid.com",
    "contact_person": "",
    "contact_person_role": "",
    "latitude": 41.5568569,
    "longitude": -88.1910565
  },
  {
    "name": "Islamic Information Center of America",
    "address": "830 E Old Willow Rd, Prospect Heights, IL 60070",
    "city": "Prospect Heights",
    "state": "Illinois",
    "zip_code": 60070,
    "country": "United States",
    "phone": "847-541-8141",
    "website": "https://www.iica.org/",
    "email_primary": "info@iica.org",
    "contact_person": "",
    "contact_person_role": "",
    "latitude": 42.1037529,
    "longitude": -87.8943922
  },
  {
    "name": "Muslim Community Center of Rockford",
    "address": "5921 Darlene Dr, Rockford, IL 61109",
    "city": "Rockford",
    "state": "Illinois",
    "zip_code": 61109,
    "country": "United States",
    "phone": "815-397-3311",
    "website": "https://magr.org/",
    "email_primary": "info@magr.org",
    "contact_person": "",
    "contact_person_role": "",
    "latitude": 42.2358376,
    "longitude": -89.0008272
  },
  {
    "name": "Islamic Society of Northwest Suburbs",
    "address": "3890 Industrial Ave, Rolling Meadows, IL 60008",
    "city": "Rolling Meadows",
    "state": "Illinois",
    "zip_code": 60008,
    "country": "United States",
    "phone": "847-253-6400",
    "website": "https://www.isns.org/",
    "email_primary": "communications@isns.org",
    "contact_person": "",
    "contact_person_role": "",
    "latitude": 42.0960932,
    "longitude": -88.0299293
  },
  {
    "name": "Masjid Al-Huda | Midwest Islamic Center",
    "address": "1081 W Irving Park Rd, Schaumburg, IL 60193",
    "city": "Schaumburg",
    "state": "Illinois",
    "zip_code": 60193,
    "country": "United States",
    "phone": "630-529-1786",
    "website": "https://masjidalhuda.org/",
    "email_primary": "info.masjid@masjidalhuda.org",
    "contact_person": "",
    "contact_person_role": "",
    "latitude": 41.9977557,
    "longitude": -88.1186927
  },
  {
    "name": "Islamic Society of Greater Springfield",
    "address": "3000 Stanton St, Springfield, IL 62703",
    "city": "Springfield",
    "state": "Illinois",
    "zip_code": 62703,
    "country": "United States",
    "phone": "217-529-8970",
    "website": "https://isogs.org/",
    "email_primary": "isogs@outlook.com",
    "contact_person": "",
    "contact_person_role": "",
    "latitude": 39.7619569,
    "longitude": -89.6249011
  },
  {
    "name": "Bait Ul Ilm Islamic Center",
    "address": "485 S Bartlett Rd, Streamwood, IL 60107",
    "city": "Streamwood",
    "state": "Illinois",
    "zip_code": 60107,
    "country": "United States",
    "phone": "630-669-6343",
    "website": "https://www.baitulilm.org/",
    "email_primary": "mfaezi@baitulilm.org",
    "contact_person": "",
    "contact_person_role": "",
    "latitude": 42.0241098,
    "longitude": -88.1808508
  },
  {
    "name": "Central Illinois Mosque & Islamic Center",
    "address": "106 S Lincoln Ave, Urbana, IL 61801",
    "city": "Urbana",
    "state": "Illinois",
    "zip_code": 61801,
    "country": "United States",
    "phone": "217-782-6562",
    "website": "https://www.cimic.org/",
    "email_primary": "cimic@cimic.org",
    "contact_person": "",
    "contact_person_role": "",
    "latitude": 40.1116699,
    "longitude": -88.2189195
  },
  {
    "name": "Islamic Foundation",
    "address": "300 W Highridge Rd, Villa Park, IL 60181",
    "city": "Villa Park",
    "state": "Illinois",
    "zip_code": 60181,
    "country": "United States",
    "phone": "630-782-6562",
    "website": "https://www.islamicfoundation.org/",
    "email_primary": "hisham@islamicfoundation.org",
    "contact_person": "",
    "contact_person_role": "",
    "latitude": 41.8681693,
    "longitude": -87.9857727
  },
  {
    "name": "Islamic Center of Western Suburbs",
    "address": "28W774 Army Trail Rd, West Chicago, IL 60185",
    "city": "West Chicago",
    "state": "Illinois",
    "zip_code": 60185,
    "country": "United States",
    "phone": "630-402-0805",
    "website": "https://www.icwsmasjid.org/",
    "email_primary": "info@icwsmasjid.org",
    "contact_person": "",
    "contact_person_role": "",
    "latitude": 41.9442008,
    "longitude": -88.1840499
  },
  {
    "name": "Muslim Education Cultural Center of America",
    "address": "720 E Plainfield Rd, Countryside, IL 60525",
    "city": "Willowsbrook",
    "state": "Illinois",
    "zip_code": 60527,
    "country": "United States",
    "phone": "630-241-2000",
    "website": "https://meccacenter.org/",
    "email_primary": "ilmeccacenter@gmail.com",
    "contact_person": "",
    "contact_person_role": "",
    "latitude": 41.7978785,
    "longitude": -87.8591632
  },
  {
    "name": "Al Hira Community Center",
    "address": "140 E Commercial St, Wood Dale, IL 60191",
    "city": "Wood Dale",
    "state": "Illinois",
    "zip_code": 60191,
    "country": "United States",
    "phone": "630-350-7860",
    "website": "http://www.alhiracommunitycenter.org/",
    "email_primary": "",
    "contact_person": "Mohammad Iqbal Chohan",
    "contact_person_role": "President",
    "latitude": 41.9643158,
    "longitude": -87.9771158
  },
  {
    "name": "Islamic Center of Bloomington",
    "address": "Bloomington, IN",
    "city": "Bloomington",
    "state": "Indiana",
    "zip_code": 47401,
    "country": "United States",
    "phone": "812-333-1611",
    "website": "https://www.icob.org/",
    "email_primary": "Contact@icob.org",
    "contact_person": "",
    "contact_person_role": "",
    "latitude": 39.165325,
    "longitude": -86.5263857
  },
  {
    "name": "Islamic Society of Columbus In",
    "address": "1531 13th St, Columbus, IN 47201",
    "city": "Columbus",
    "state": "Indiana",
    "zip_code": 47201,
    "country": "United States",
    "phone": "269-779-7439",
    "website": "https://www.iscindiana.org/",
    "email_primary": "contact@iscindiana.org",
    "contact_person": "",
    "contact_person_role": "",
    "latitude": 39.2111538,
    "longitude": -85.9072928
  },
  {
    "name": "Northwest Indiana Islamic center",
    "address": "9803 Colorado St, Crown Point, IN 46307",
    "city": "Crown Point",
    "state": "Indiana",
    "zip_code": 46307,
    "country": "United States",
    "phone": "219-756-7622",
    "website": "https://nwiic.org/",
    "email_primary": "info@nwiic.org",
    "contact_person": "",
    "contact_person_role": "",
    "latitude": 41.4396175,
    "longitude": -87.2949725
  },
  {
    "name": "Al Huda Foundation",
    "address": "12201 Lantern Rd, Fishers, IN 46038",
    "city": "Fishers",
    "state": "Indiana",
    "zip_code": 46038,
    "country": "United States",
    "phone": "317-570-9100",
    "website": "https://alhudafoundation.org/",
    "email_primary": "info@alhudafoundation.org techsupport@alhudafoundation.org",
    "contact_person": "",
    "contact_person_role": "",
    "latitude": 39.9646192,
    "longitude": -86.0127457
  },
  {
    "name": "Gary Muslim Center",
    "address": "1473 W 15th Ave, Gary, IN 46407",
    "city": "Gary",
    "state": "Indiana",
    "zip_code": 46407,
    "country": "United States",
    "phone": "219-885-3018",
    "website": "http://garymuslimcenter.com/",
    "email_primary": "",
    "contact_person": "",
    "contact_person_role": "",
    "latitude": 41.5875742,
    "longitude": -87.3556982
  },
  {
    "name": "Illiana Islamic Association",
    "address": "9606 Spring St, Highland, IN 46322",
    "city": "Highland",
    "state": "Indiana",
    "zip_code": 46322,
    "country": "United States",
    "phone": "219-924-2940",
    "website": "https://www.highlandmasjid.org/",
    "email_primary": "info@highlandmasjid.org",
    "contact_person": "",
    "contact_person_role": "",
    "latitude": 41.5387627,
    "longitude": -87.4693955
  },
  {
    "name": "Nur-Allah Islamic Center",
    "address": "2040 E 46th St, Indianapolis, IN 46205",
    "city": "Indianapolis",
    "state": "Indiana",
    "zip_code": 46205,
    "country": "United States",
    "phone": "317-251-9796",
    "website": "http://nurallah.org/",
    "email_primary": "nur-allah@att.net",
    "contact_person": "",
    "contact_person_role": "",
    "latitude": 39.8404073,
    "longitude": -86.1261377
  },
  {
    "name": "Masjid Al-Fajr",
    "address": "2846 Cold Spring Rd, Indianapolis, IN 46222",
    "city": "Indianapolis",
    "state": "Indiana",
    "zip_code": 46222,
    "country": "United States",
    "phone": "317-855-9934",
    "website": "https://theimcaonline.org/",
    "email_primary": "info@theimcaonline.org",
    "contact_person": "",
    "contact_person_role": "",
    "latitude": 39.8073707,
    "longitude": -86.2036589
  },
  {
    "name": "Masjid Al-Mumineen",
    "address": "4088 Millersville Rd, Indianapolis, IN 46205",
    "city": "Indianapolis",
    "state": "Indiana",
    "zip_code": 46205,
    "country": "United States",
    "phone": "317-545-4252",
    "website": "https://www.masjidmumineen.com/",
    "email_primary": "masjidalmumineenindy@gmail.com",
    "contact_person": "",
    "contact_person_role": "",
    "latitude": 39.8304053,
    "longitude": -86.1209334
  },
  {
    "name": "Masjid An-Nur",
    "address": "5250 Lafayette Rd, Indianapolis, IN 46254",
    "city": "Indianapolis",
    "state": "Indiana",
    "zip_code": 46254,
    "country": "United States",
    "phone": "317-328-7983",
    "website": "https://masjidnoorindy.org/",
    "email_primary": "",
    "contact_person": "",
    "contact_person_role": "",
    "latitude": 39.8472467,
    "longitude": -86.2559516
  },
  {
    "name": "Muslim Community Center, Indianapolis",
    "address": "4836 Mt Vernon Dr, Indianapolis, IN 46227",
    "city": "Indianapolis",
    "state": "Indiana",
    "zip_code": 46227,
    "country": "United States",
    "phone": "317-786-8911",
    "website": "http://www.taqwacenter.com/",
    "email_primary": "mcci4u@gmail.com",
    "contact_person": "",
    "contact_person_role": "",
    "latitude": 39.6953235,
    "longitude": -86.1462664
  },
  {
    "name": "Zainabia Center for Momin",
    "address": "4444 W 56th St, Indianapolis, IN 46254",
    "city": "Indianapolis",
    "state": "Indiana",
    "zip_code": 46254,
    "country": "United States",
    "phone": "",
    "website": "https://www.zainabiacenter.org/",
    "email_primary": "12thimamfollower@gmail.com",
    "contact_person": "",
    "contact_person_role": "",
    "latitude": 39.8540292,
    "longitude": -86.2360745
  },
  {
    "name": "Al Haqq FOundation",
    "address": "5554 Georgetown Rd, Indianapolis, IN 46254",
    "city": "Indianapolis",
    "state": "Indiana",
    "zip_code": 46254,
    "country": "United States",
    "phone": "317-822-8161",
    "website": "http://www.alhaqqfoundation.net/",
    "email_primary": "alhaqqfoundation@yahoo.com",
    "contact_person": "Muhammad Ndiaye",
    "contact_person_role": "Director",
    "latitude": 39.8526215,
    "longitude": -86.2402519
  },
  {
    "name": "Kendallville Masjid | American Moslem Society Indiana",
    "address": "Kendallville, IN 46755",
    "city": "Kendallville",
    "state": "Indiana",
    "zip_code": 46755,
    "country": "United States",
    "phone": "260-242-1433",
    "website": "",
    "email_primary": "",
    "contact_person": "",
    "contact_person_role": "",
    "latitude": 41.4452015,
    "longitude": -85.2929384
  },
  {
    "name": "Islamic Center of Michigan City",
    "address": "1606 N 500 E, Michigan City, IN 46360",
    "city": "Michigan City",
    "state": "Indiana",
    "zip_code": 46360,
    "country": "United States",
    "phone": "219-879-9667",
    "website": "https://islamiccenterofmichigancity.org/",
    "email_primary": "syedshahicmc@tgmail.com",
    "contact_person": "",
    "contact_person_role": "",
    "latitude": 41.6669525,
    "longitude": -86.9728292
  },
  {
    "name": "Islamic Center of Muncie",
    "address": "Hessler Rd, Indiana 47304",
    "city": "Muncie",
    "state": "Indiana",
    "zip_code": 47305,
    "country": "United States",
    "phone": "765-288-8014",
    "website": "https://icmuncie.weebly.com/",
    "email_primary": "islamiccenterfmuncie@gmail.com",
    "contact_person": "",
    "contact_person_role": "",
    "latitude": 40.2190859,
    "longitude": -85.4465444
  },
  {
    "name": "Islamic Center of Evansville",
    "address": "4200 Grimm Rd, Newburgh, IN 47630",
    "city": "Newburgh",
    "state": "Indiana",
    "zip_code": 47630,
    "country": "United States",
    "phone": "812-853-8806",
    "website": "https://www.isevv.org/",
    "email_primary": "zbfarooqui@gmail.com sundayschoolevl@gmail.com",
    "contact_person": "",
    "contact_person_role": "",
    "latitude": 37.9739399,
    "longitude": -87.4315037
  },
  {
    "name": "Islamic Society of North America",
    "address": "Cartersburg, IN 46168",
    "city": "Plainfield",
    "state": "Indiana",
    "zip_code": 46168,
    "country": "United States",
    "phone": "",
    "website": "https://isna.net/",
    "email_primary": "info@isna.net",
    "contact_person": "",
    "contact_person_role": "",
    "latitude": 39.698657,
    "longitude": -86.4636075
  },
  {
    "name": "Masjid Al-Noor | Islamic Society of Michina",
    "address": "3310 Hepler St, South Bend, IN 46635",
    "city": "South Bend",
    "state": "Indiana",
    "zip_code": 46635,
    "country": "United States",
    "phone": "574-272-0569",
    "website": "http://www.michianamuslims.org/",
    "email_primary": "contact@michianamuslims.org",
    "contact_person": "",
    "contact_person_role": "",
    "latitude": 41.7018519,
    "longitude": -86.2030159
  },
  {
    "name": "AL-ILM Weekend School",
    "address": "4950 W 34th Pl, Indianapolis, IN 46224",
    "city": "Indianapolis",
    "state": "Indiana",
    "zip_code": 46224,
    "country": "United States",
    "phone": "317-672-0488",
    "website": "https://alilmschool.org/",
    "email_primary": "support@alilmschool.org",
    "contact_person": "",
    "contact_person_role": "",
    "latitude": 39.8180717,
    "longitude": -86.2439502
  },
  {
    "name": "Shia Islamic Center of Michigan City",
    "address": "613 Greentree Dr, Trail Creek, IN 46360",
    "city": "Trail Creek",
    "state": "Indiana",
    "zip_code": 46360,
    "country": "United States",
    "phone": "219-879-9667",
    "website": "https://islamiccenterofmichigancity.org/",
    "email_primary": "syedshahicmc@tgmail.com",
    "contact_person": "",
    "contact_person_role": "",
    "latitude": 41.6900192,
    "longitude": -86.8560836
  },
  {
    "name": "Islamic Society of Greater Lafayette",
    "address": "1022 1st Street, West Lafayette, IN 47906",
    "city": "West Lafayette",
    "state": "Indiana",
    "zip_code": 47906,
    "country": "United States",
    "phone": "765-743-8650",
    "website": "https://www.masjidisgl.org/index",
    "email_primary": "admin@masjidisgl.org",
    "contact_person": "",
    "contact_person_role": "",
    "latitude": 40.4254697,
    "longitude": -86.9187811
  },
  {
    "name": "Masjid Darul Arqum | Islamic Community of Quad Cities",
    "address": "1212 Iowa Ave, Ames, IA 50014",
    "city": "Ames",
    "state": "Iowa",
    "zip_code": 50014,
    "country": "United States",
    "phone": "515-292-3683",
    "website": "http://new.arqum.org/index.cfm",
    "email_primary": "info@arqum.org",
    "contact_person": "",
    "contact_person_role": "",
    "latitude": 42.0338493,
    "longitude": -93.6584823
  },
  {
    "name": "Muslim Community Center of Quas Cities",
    "address": "2115 Kimberly Rd, Twin Falls, ID 83301",
    "city": "Bettendorf",
    "state": "Iowa",
    "zip_code": 52782,
    "country": "United States",
    "phone": "563-359-8123",
    "website": "https://mcqc.org/",
    "email_primary": "info@mcqc.org",
    "contact_person": "",
    "contact_person_role": "",
    "latitude": 42.5485309,
    "longitude": -114.4424607
  },
  {
    "name": "Mother Mosque of North America",
    "address": "1335 9th St NW, Cedar Rapids, IA 52405",
    "city": "Cedar Rapids",
    "state": "Iowa",
    "zip_code": 52405,
    "country": "United States",
    "phone": "319-366-3150",
    "website": "https://www.crmosque.org/",
    "email_primary": "info@crmosque.com",
    "contact_person": "",
    "contact_person_role": "",
    "latitude": 41.9863699,
    "longitude": -91.6842883
  },
  {
    "name": "Muslim American Society of Iowa",
    "address": "2121 N Towne Ln NE, Cedar Rapids, IA 52402",
    "city": "Cedar Rapids",
    "state": "Iowa",
    "zip_code": 52402,
    "country": "United States",
    "phone": "319-892-0256",
    "website": "https://masiowa.org/",
    "email_primary": "info@masiowa.org",
    "contact_person": "",
    "contact_person_role": "",
    "latitude": 42.0324982,
    "longitude": -91.6717922
  },
  {
    "name": "Islamic Society of Clinton County",
    "address": "1500 2nd Ave S, Clinton, IA 52732",
    "city": "Clinton",
    "state": "Iowa",
    "zip_code": 52732,
    "country": "United States",
    "phone": "563-243-8421",
    "website": "https://www.ciciowa.org/",
    "email_primary": "anisansari5@gmail.com",
    "contact_person": "",
    "contact_person_role": "",
    "latitude": 41.8446447,
    "longitude": -90.221188
  },
  {
    "name": "Tri-State Islamic Center",
    "address": "805 Century Dr #101, Dubuque, IA 52002",
    "city": "Dubuque",
    "state": "Iowa",
    "zip_code": 52002,
    "country": "United States",
    "phone": "815-501-4563",
    "website": "https://tristateislamic.center/",
    "email_primary": "info@tristateislamic.center",
    "contact_person": "",
    "contact_person_role": "",
    "latitude": 42.493742,
    "longitude": -90.7268111
  },
  {
    "name": "Masjid Al-Iman | Al-Iman Center of Iowa",
    "address": "1812 W Benton St, Iowa City, IA 52246",
    "city": "Iowa City",
    "state": "Iowa",
    "zip_code": 52246,
    "country": "United States",
    "phone": "319-354-6167",
    "website": "https://iowacitymosque.org/index.html",
    "email_primary": "iowacitymosque@yahoo.com",
    "contact_person": "",
    "contact_person_role": "",
    "latitude": 41.6499093,
    "longitude": -91.5653174
  },
  {
    "name": "Mosque of Sious City",
    "address": "1219 Jones St, Sioux City, IA 51105",
    "city": "Sioux City",
    "state": "Iowa",
    "zip_code": 51105,
    "country": "United States",
    "phone": "712-234-1670",
    "website": "",
    "email_primary": "",
    "contact_person": "",
    "contact_person_role": "",
    "latitude": 42.5037414,
    "longitude": -96.4011589
  },
  {
    "name": "Islamic Center of Des Moines",
    "address": "6201 Franklin Ave, Des Moines, IA 50322",
    "city": "Urbandale",
    "state": "Iowa",
    "zip_code": 50322,
    "country": "United States",
    "phone": "515-255-0212",
    "website": "https://www.islamiccenterdm.com/",
    "email_primary": "icdm.support@gmail.com",
    "contact_person": "",
    "contact_person_role": "",
    "latitude": 41.6115792,
    "longitude": -93.7030984
  },
  {
    "name": "Masjid Al Noor | Islamic Center of Waterloo",
    "address": "2110 Sager Ave, Waterloo, IA 50701",
    "city": "Waterloo",
    "state": "Iowa",
    "zip_code": 50701,
    "country": "United States",
    "phone": "319-233-6640",
    "website": "https://masjidalnooriowa.org/",
    "email_primary": "masjidwcf@gmail.com",
    "contact_person": "",
    "contact_person_role": "",
    "latitude": 42.4987204,
    "longitude": -92.3941853
  },
  {
    "name": "Islamic Center of Emporia",
    "address": "1125 Mechanic St, Emporia, KS 66801",
    "city": "Emporia",
    "state": "kansas",
    "zip_code": 66801,
    "country": "United States",
    "phone": "620-343-9229",
    "website": "https://www.islamiccenteremporia.org/",
    "email_primary": "icek1234ks@yahoo.com",
    "contact_person": "",
    "contact_person_role": "",
    "latitude": 38.411945,
    "longitude": -96.1790917
  },
  {
    "name": "Az-Zahra Islamic Center",
    "address": "8350 Leavenworth Rd, Kansas City, KS 66109",
    "city": "Kansas City",
    "state": "kansas",
    "zip_code": 66109,
    "country": "United States",
    "phone": "913-440-4786",
    "website": "https://www.az-zahraa.org/",
    "email_primary": "",
    "contact_person": "",
    "contact_person_role": "",
    "latitude": 39.1440915,
    "longitude": -94.7730772
  },
  {
    "name": "Islamic Center of Lawrence",
    "address": "1917 Naismith Dr, Lawrence, KS 66046",
    "city": "Lawrence",
    "state": "kansas",
    "zip_code": 66046,
    "country": "United States",
    "phone": "785-749-1638",
    "website": "https://iclks.org/",
    "email_primary": "info@islamicsocietylawrence.org",
    "contact_person": "",
    "contact_person_role": "",
    "latitude": 38.9495698,
    "longitude": -95.2516725
  },
  {
    "name": "Islamic Center of Leavenworth",
    "address": "545 Oregon St, Leavenworth, KS 66048",
    "city": "Leavenworth",
    "state": "kansas",
    "zip_code": 66048,
    "country": "United States",
    "phone": "913-683-0905",
    "website": "http://leavenworthmuslims.weebly.com/",
    "email_primary": "info@leavenworthmuslims.org",
    "contact_person": "",
    "contact_person_role": "",
    "latitude": 39.2829707,
    "longitude": -94.9114445
  },
  {
    "name": "Islamic Center of Manhattan",
    "address": "1224 Hylton Heights Rd, Manhattan, KS 66502",
    "city": "Manhattan",
    "state": "kansas",
    "zip_code": 66502,
    "country": "United States",
    "phone": "785-340-5774",
    "website": "https://icmks.org/blog/",
    "email_primary": "info@icmks.org",
    "contact_person": "",
    "contact_person_role": "",
    "latitude": 39.1926246,
    "longitude": -96.6042441
  },
  {
    "name": "Islamic Center of Kansas",
    "address": "14750 W 143rd St, Olathe, KS 66062",
    "city": "Olathe",
    "state": "kansas",
    "zip_code": 66062,
    "country": "United States",
    "phone": "913-390-5055",
    "website": "https://ickansas.org/",
    "email_primary": "info@ickansas.org",
    "contact_person": "",
    "contact_person_role": "",
    "latitude": 38.8698168,
    "longitude": -94.7569081
  },
  {
    "name": "Islamic Center of Johnson Country",
    "address": "W 151st St, Illinois",
    "city": "Overland Park",
    "state": "kansas",
    "zip_code": 662211,
    "country": "United States",
    "phone": "913-239-0770",
    "website": "https://www.icjc.org/",
    "email_primary": "icjcounty@hotmail.com",
    "contact_person": "",
    "contact_person_role": "",
    "latitude": 41.6148027,
    "longitude": -87.9177341
  },
  {
    "name": "Shawnee Mission Islamic Education Center",
    "address": "13420 Oak St, Lenexa, KS 66215",
    "city": "Shawnee Mission",
    "state": "kansas",
    "zip_code": 66215,
    "country": "United States",
    "phone": "913-303-0162",
    "website": "https://smiec.org/",
    "email_primary": "info@smiec.org",
    "contact_person": "",
    "contact_person_role": "",
    "latitude": 38.9595118,
    "longitude": -94.7413248
  },
  {
    "name": "Islamic Center of Topeka",
    "address": "1115 SE 27th St, Topeka, KS 66605",
    "city": "Topeka",
    "state": "kansas",
    "zip_code": 66605,
    "country": "United States",
    "phone": "785-233-1171",
    "website": "http://topekamosque.org/",
    "email_primary": "islamiccenteroftopeka@gmail.com",
    "contact_person": "",
    "contact_person_role": "",
    "latitude": 39.0187295,
    "longitude": -95.6629375
  },
  {
    "name": "Masjid Al-Noor | Islamic Society of Wichita",
    "address": "3104 E 17th St N, Wichita, KS 67214",
    "city": "Wichita",
    "state": "kansas",
    "zip_code": 67214,
    "country": "United States",
    "phone": "316-516-8939",
    "website": "https://www.myisw.org/",
    "email_primary": "officemanager@myisw.org",
    "contact_person": "",
    "contact_person_role": "",
    "latitude": 37.7157467,
    "longitude": -97.2999417
  },
  {
    "name": "Islamic Society of Wichita Falls",
    "address": "Wichita Falls, TX 76308",
    "city": "Wichita Falls",
    "state": "kansas",
    "zip_code": 76308,
    "country": "United States",
    "phone": "",
    "website": "https://www.islamicsocietywf.org/",
    "email_primary": "",
    "contact_person": "",
    "contact_person_role": "",
    "latitude": 33.8511616,
    "longitude": -98.544636
  },
  {
    "name": "Bosnian Islamic Center of Bowling Green",
    "address": "115 Dishman Ln, Bowling Green, KY 42101",
    "city": "Bowling Green",
    "state": "Kentucky",
    "zip_code": 42101,
    "country": "United States",
    "phone": "270-799-4852",
    "website": "http://www.bicbg.org/",
    "email_primary": "bicbg@izbsa.com",
    "contact_person": "",
    "contact_person_role": "",
    "latitude": 36.9595761,
    "longitude": -86.4900373
  },
  {
    "name": "Islamic Center of Northern Kentucky",
    "address": "8142 Mall Rd, Florence, KY 41042",
    "city": "Burlington",
    "state": "Kentucky",
    "zip_code": 41042,
    "country": "United States",
    "phone": "",
    "website": "https://www.icnky.com/",
    "email_primary": "",
    "contact_person": "",
    "contact_person_role": "",
    "latitude": 38.9839923,
    "longitude": -84.6492598
  },
  {
    "name": "Islamic Center of Danville",
    "address": "Ben Ali Dr, Danville, KY 40422",
    "city": "Danville",
    "state": "Kentucky",
    "zip_code": 40422,
    "country": "United States",
    "phone": "606-936-1694",
    "website": "https://www.danvillemasjid.com/",
    "email_primary": "contact@danvillemasjid.com",
    "contact_person": "",
    "contact_person_role": "",
    "latitude": 37.6496147,
    "longitude": -84.8070376
  },
  {
    "name": "Islamic Center of Elizabethtown",
    "address": "2816 Ring Rd, Elizabethtown, KY 42701",
    "city": "Elizabethtown",
    "state": "Kentucky",
    "zip_code": 42701,
    "country": "United States",
    "phone": "270-765-7190",
    "website": "https://sites.google.com/view/etownmasjid",
    "email_primary": "muhammadibrahimsheikh1997@gmail.com",
    "contact_person": "",
    "contact_person_role": "",
    "latitude": 37.72075,
    "longitude": -85.8389856
  },
  {
    "name": "Islamic Center of Frankfort",
    "address": "Islamic Center of Frankfort, 741 Schenkel Ln, Frankfort, KY 40601",
    "city": "Frankfort",
    "state": "Kentucky",
    "zip_code": 40601,
    "country": "United States",
    "phone": "502-227-8641",
    "website": "https://www.islamiccenterfrankfortky.org/",
    "email_primary": "",
    "contact_person": "",
    "contact_person_role": "",
    "latitude": 38.2178567,
    "longitude": -84.8399519
  },
  {
    "name": "Masjid Bilal Ibn Rabah",
    "address": "1545 Russell Cave Rd, Lexington, KY 40505",
    "city": "Lexington",
    "state": "Kentucky",
    "zip_code": 40505,
    "country": "United States",
    "phone": "770-629-2220",
    "website": "https://masjidbilalibnrabaah.com/",
    "email_primary": "info@masjidbilalibnrabaah.com",
    "contact_person": "",
    "contact_person_role": "",
    "latitude": 38.0737221,
    "longitude": -84.4753006
  },
  {
    "name": "Islamic Center of Lexington",
    "address": "649 S Limestone, Lexington, KY 40508",
    "city": "Lexington",
    "state": "Kentucky",
    "zip_code": 40508,
    "country": "United States",
    "phone": "240-317-7299",
    "website": "https://www.iclpmd.org/",
    "email_primary": "iclpmd@gmail.com",
    "contact_person": "",
    "contact_person_role": "",
    "latitude": 38.0363814,
    "longitude": -84.5081474
  },
  {
    "name": "Muslim Community Center of Louisville",
    "address": "8215 Old Westport Rd, Louisville, KY 40222",
    "city": "Louisville",
    "state": "Kentucky",
    "zip_code": 40222,
    "country": "United States",
    "phone": "502-412-7825",
    "website": "https://www.mcclou.org/",
    "email_primary": "mcclouky@gmail.com",
    "contact_person": "",
    "contact_person_role": "",
    "latitude": 38.2785691,
    "longitude": -85.5983869
  },
  {
    "name": "Islamic Cultural Center of Louisville",
    "address": "4007 Upper River Rd, Louisville, KY 40207",
    "city": "Louisville",
    "state": "Kentucky",
    "zip_code": 40207,
    "country": "United States",
    "phone": "502-442-1718",
    "website": "https://www.louisvilleislamiccenter.org/",
    "email_primary": "mosque.riverroad@gmail.com",
    "contact_person": "",
    "contact_person_role": "",
    "latitude": 38.2783602,
    "longitude": -85.6855033
  },
  {
    "name": "Abubakar Islamic Center of Louisville",
    "address": "Louisville, KY 40214",
    "city": "Louisville",
    "state": "Kentucky",
    "zip_code": 40214,
    "country": "United States",
    "phone": "502-442-1718",
    "website": "http://www.aicl.webs.com/",
    "email_primary": "osmannoor29@yahoo.com",
    "contact_person": "",
    "contact_person_role": "",
    "latitude": 38.1459555,
    "longitude": -85.7769164
  },
  {
    "name": "Al-Zaharah Islamic Education Center",
    "address": "4010 Bishop Ln, Louisville, KY 40218",
    "city": "Louisville",
    "state": "Kentucky",
    "zip_code": 40218,
    "country": "United States",
    "phone": "502-969-2199",
    "website": "https://www.elzahra.org/?page_id=1701",
    "email_primary": "info@elzahra.org",
    "contact_person": "",
    "contact_person_role": "",
    "latitude": 38.1885818,
    "longitude": -85.6927202
  },
  {
    "name": "Bosnian American Islamic Center",
    "address": "5927 Six Mile Ln, Louisville, KY 40218",
    "city": "Louisville",
    "state": "Kentucky",
    "zip_code": 40218,
    "country": "United States",
    "phone": "502-495-5092",
    "website": "https://sites.google.com/view/baic-new/home?authuser=0",
    "email_primary": "baic@dzematlouisville.org",
    "contact_person": "",
    "contact_person_role": "",
    "latitude": 38.1966499,
    "longitude": -85.6501024
  },
  {
    "name": "Masjid Al Farooq | Islamic Center of Eastern Kentucky",
    "address": "8 Masjid Ave, Prestonsburg, KY 41653",
    "city": "Prestonsburg",
    "state": "Kentucky",
    "zip_code": 41653,
    "country": "United States",
    "phone": "606-889-0626",
    "website": "",
    "email_primary": "",
    "contact_person": "",
    "contact_person_role": "",
    "latitude": 37.6742442,
    "longitude": -82.8031456
  },
  {
    "name": "Islamic Center of Richmond",
    "address": "203 Hanover Ave, Richmond, KY 40475",
    "city": "Richmond",
    "state": "Kentucky",
    "zip_code": 40475,
    "country": "United States",
    "phone": "859-625-0353",
    "website": "https://www.icrva.org/",
    "email_primary": "info@icrva.org",
    "contact_person": "",
    "contact_person_role": "",
    "latitude": 37.7359753,
    "longitude": -84.281391
  }
]