[
  {
    "name": "Anniston Islamic Center",
    "address": "1821 McCall Drive",
    "city": "Anniston",
    "state": "Alabama",
    "zip_code": 36207,
    "country": "United States",
    "phone": "256-238-8613",
    "Website": "https://annistonic.org/",
    "email_primary": "",
    "contact_person": "Dr. Khurram Fareed",
    "contact_person_role": "President",
    "latitude": "",
    "longitude": ""
  },
  {
    "name": "Homewood Masjid | BIS",
    "address": "1810 25th Court South Homewood",
    "city": "Homewood",
    "state": "Alabama",
    "zip_code": 35209,
    "country": "United States",
    "phone": "205-879-4247",
    "Website": "https://www.bisweb.org/",
    "email_primary": "bisoffice@bisweb.org",
    "contact_person": "",
    "contact_person_role": "",
    "latitude": "",
    "longitude": ""
  },
  {
    "name": "Huntsville Islamic Center",
    "address": "1645 Sparkman Dr NW Huntsville",
    "city": "Huntsville",
    "state": "Alabama",
    "zip_code": 35816,
    "country": "United States",
    "phone": "256-721-1712",
    "Website": "https://huntsvilleislamiccenter.org/",
    "email_primary": "board@huntsvilleislamiccenter.org",
    "contact_person": "",
    "contact_person_role": "",
    "latitude": "",
    "longitude": ""
  },
  {
    "name": "American Islamic Center of Mobile",
    "address": "6702 Old Shell Road",
    "city": "Mobile",
    "state": "Alabama",
    "zip_code": 36608,
    "country": "United States",
    "phone": "251-366-5000",
    "Website": "https://mobilemosque.com/",
    "email_primary": "AICOFMOBILE@gmail.com",
    "contact_person": "",
    "contact_person_role": "",
    "latitude": "",
    "longitude": ""
  },
  {
    "name": "Muslim Center of Montgomery",
    "address": "4340 Court Street",
    "city": "Montgomery",
    "state": "Alabama",
    "zip_code": 36105,
    "country": "United States",
    "phone": "334-312-7872",
    "Website": "https://www.mcmontgomery.org/",
    "email_primary": "muslimcenterofmontgomery@gmail.com",
    "contact_person": "",
    "contact_person_role": "",
    "latitude": "",
    "longitude": ""
  },
  {
    "name": "Al-Huda Islamic Center",
    "address": "10 Cayuga Vista Drive",
    "city": "Lansing",
    "state": "New York",
    "zip_code": "",
    "country": "United States",
    "phone": "607-533-0357",
    "Website": "https://alhudaislamiccenter.org/",
    "email_primary": "contactus@alhudaislamiccenter.org",
    "contact_person": "Mahmud Burton",
    "contact_person_role": "President",
    "latitude": "",
    "longitude": ""
  },
  {
    "name": "Islamic Society of Tuscaloosa",
    "address": "!416 Paul W Bryant Drive",
    "city": "Tuscaloosa",
    "state": "Alabama",
    "zip_code": 35401,
    "country": "United States",
    "phone": "205-758-3382",
    "Website": "https://istuscaloosa.org/",
    "email_primary": "support@istuscalosa.org",
    "contact_person": "",
    "contact_person_role": "",
    "latitude": "",
    "longitude": ""
  },
  {
    "name": "The Islamic Community Of Anchorage Alaska",
    "address": "8005 Spring Street",
    "city": "Anchorage",
    "state": "Alaska",
    "zip_code": 99518,
    "country": "United States",
    "phone": "907-248-7333",
    "Website": "https://alaskamasjid.org/",
    "email_primary": "alaskamuslimcommunity@yahoo.com",
    "contact_person": "",
    "contact_person_role": "",
    "latitude": "",
    "longitude": ""
  },
  {
    "name": "Islamic Center of the East Valley",
    "address": "425 N Alma School Rd",
    "city": "Chadler",
    "state": "Arizona",
    "zip_code": 85224,
    "country": "United States",
    "phone": "480-910-0330",
    "Website": "https://icev.org/",
    "email_primary": "info@icevmasjid.org",
    "contact_person": "",
    "contact_person_role": "",
    "latitude": "",
    "longitude": ""
  },
  {
    "name": "Islamic Center of Laveen",
    "address": "5099 W Dobbins Rd #1",
    "city": "Laveen Village",
    "state": "Arizona",
    "zip_code": 85339,
    "country": "United States",
    "phone": "602-237-2666",
    "Website": "https://www.islamiccenteroflaveen.org/",
    "email_primary": "secretary@iclaveen.net",
    "contact_person": "",
    "contact_person_role": "",
    "latitude": "",
    "longitude": ""
  },
  {
    "name": "Masjid Bilal IBN Rabah",
    "address": "44370 Cesar Chavez Lane",
    "city": "Maricopa",
    "state": "Arizona",
    "zip_code": 85138,
    "country": "United States",
    "phone": "480-582-9993",
    "Website": "https://masjidbilalaz.org/",
    "email_primary": "masjidbilalaz@gmail.com",
    "contact_person": "",
    "contact_person_role": "",
    "latitude": "",
    "longitude": ""
  },
  {
    "name": "Majid Al-Noor",
    "address": "55 N. Matlock St.",
    "city": "Mesa",
    "state": "Arizona",
    "zip_code": 85203,
    "country": "United States",
    "phone": "480-644-0074",
    "Website": "https://www.masjid-alnoor.org/",
    "email_primary": "info@masjid-alnoor.org",
    "contact_person": "",
    "contact_person_role": "",
    "latitude": "",
    "longitude": ""
  },
  {
    "name": "Albanian American Islamic Center",
    "address": "5825 St. Charles Road",
    "city": "Berkeley",
    "state": "Arizona",
    "zip_code": 60163,
    "country": "United States",
    "phone": "708-544-2609",
    "Website": "https://albanianamericanislamiccenter.com/",
    "email_primary": "office@albanianilamciccenter.com",
    "contact_person": "Mr. Ismail Mehmeti",
    "contact_person_role": "President",
    "latitude": "",
    "longitude": ""
  },
  {
    "name": "Arizona Cultural Academy",
    "address": "7810 S 42nd PI",
    "city": "Phoenix",
    "state": "Arizona",
    "zip_code": 85042,
    "country": "United States",
    "phone": "602-454-1222",
    "Website": "https://www.azacademy.org/",
    "email_primary": "info@azacademy.org",
    "contact_person": "",
    "contact_person_role": "",
    "latitude": "",
    "longitude": ""
  },
  {
    "name": "Islamic Center of North East Valley",
    "address": "12125 East Via Linda",
    "city": "Scottsdale",
    "state": "Arizona",
    "zip_code": 85259,
    "country": "United States",
    "phone": "602-456-0199",
    "Website": "https://islamcenter.com/",
    "email_primary": "pr@islamcenter.com",
    "contact_person": "",
    "contact_person_role": "",
    "latitude": "",
    "longitude": ""
  },
  {
    "name": "Masjid Omar Bin Khatab",
    "address": "6225 S. Mcclintock Dr.",
    "city": "Tempe",
    "state": "Arizona",
    "zip_code": 85283,
    "country": "United States",
    "phone": "480-775-6627",
    "Website": "https://masjidomartempe.org/",
    "email_primary": "MasjidOmarTempe@Yahoo.com",
    "contact_person": "",
    "contact_person_role": "",
    "latitude": "",
    "longitude": ""
  },
  {
    "name": "ICC-Islamic Community Center of Tempe",
    "address": "131 E 6th Street Tempe",
    "city": "Tempe",
    "state": "Arizona",
    "zip_code": 85281,
    "country": "United States",
    "phone": "480-894-6070",
    "Website": "https://tempemosque.com/",
    "email_primary": "office@tempemosque.com",
    "contact_person": "",
    "contact_person_role": "",
    "latitude": "",
    "longitude": ""
  },
  {
    "name": "Muslim Community Center of Tucson",
    "address": "5100 N. Kevy Place",
    "city": "Tucson",
    "state": "Arizona",
    "zip_code": 85704,
    "country": "United States",
    "phone": "520-329-8568",
    "Website": "https://www.mcctucson.org/",
    "email_primary": "",
    "contact_person": "",
    "contact_person_role": "",
    "latitude": "",
    "longitude": ""
  },
  {
    "name": "Masjid Al-KHaliq",
    "address": "",
    "city": "Clarksville",
    "state": "Arkansas",
    "zip_code": 72830,
    "country": "United States",
    "phone": "813-922-8684",
    "Website": "https://www.masjidalkhaliq.org/index.html",
    "email_primary": "office@masjidalkhaliq.org",
    "contact_person": "",
    "contact_person_role": "",
    "latitude": "",
    "longitude": ""
  },
  {
    "name": "Muslim Center of Conway",
    "address": "1715 South Boulevard",
    "city": "Conway",
    "state": "Arkansas",
    "zip_code": "",
    "country": "United States",
    "phone": "501-339-8744",
    "Website": "https://www.the-mcc.org/",
    "email_primary": "info@the-mcc.org",
    "contact_person": "",
    "contact_person_role": "",
    "latitude": "",
    "longitude": ""
  },
  {
    "name": "Islamic Center Of Little Rock",
    "address": "3224 Anna St",
    "city": "Little Rock",
    "state": "Arkansas",
    "zip_code": 72204,
    "country": "United States",
    "phone": "501-565-4930",
    "Website": "https://theiclr.org/",
    "email_primary": "admin@theiclr.org",
    "contact_person": "",
    "contact_person_role": "",
    "latitude": "",
    "longitude": ""
  },
  {
    "name": "Masjid Ameen Zakariyya",
    "address": "1717 Wright Ave",
    "city": "Little Rock",
    "state": "Arkansas",
    "zip_code": 72203,
    "country": "United States",
    "phone": "501-372-1942",
    "Website": "https://masjid.us/ar/ar-72203/",
    "email_primary": "masjidamerica@gmail.com",
    "contact_person": "",
    "contact_person_role": "",
    "latitude": "",
    "longitude": ""
  },
  {
    "name": "Islamic Center of Alameda",
    "address": "901 Santa Clara Ave",
    "city": "Alameda",
    "state": "California",
    "zip_code": 94501,
    "country": "United States",
    "phone": "510-748-9052",
    "Website": "https://icabayarea.org/",
    "email_primary": "info@icabayarea.org",
    "contact_person": "",
    "contact_person_role": "",
    "latitude": "",
    "longitude": ""
  },
  {
    "name": "Quba Masjid",
    "address": "Quba Masjid Hayes, Golden Crescent",
    "city": "Alameda",
    "state": "California",
    "zip_code": 94501,
    "country": "United States",
    "phone": "208-150-9299",
    "Website": "https://www.qubamasjid.com/",
    "email_primary": "info@qubamasjid.com",
    "contact_person": "",
    "contact_person_role": "",
    "latitude": "",
    "longitude": ""
  },
  {
    "name": "Salaam Islamic Center",
    "address": "1136 N. Brookhurst St.",
    "city": "Anaheim",
    "state": "California",
    "zip_code": 92801,
    "country": "United States",
    "phone": "714-999-2800",
    "Website": "https://www.aicpca.org/",
    "email_primary": "info@aicpca.org",
    "contact_person": "",
    "contact_person_role": "",
    "latitude": "",
    "longitude": ""
  },
  {
    "name": "Masjid Al-Ansar",
    "address": "1717 S. Brookhurst Street Anaheim",
    "city": "Anaheim",
    "state": "California",
    "zip_code": 92804,
    "country": "United States",
    "phone": "714-535-1100",
    "Website": "https://www.wcismasjid.com/",
    "email_primary": "office@wcismasjid.com",
    "contact_person": "",
    "contact_person_role": "",
    "latitude": "",
    "longitude": ""
  },
  {
    "name": "Islamic Center of East Bay",
    "address": "33330 Peace Terrace",
    "city": "Fremont",
    "state": "California",
    "zip_code": 94555,
    "country": "United States",
    "phone": "510-429-4732",
    "Website": "https://isebfremont.org/",
    "email_primary": "info@iseb.org",
    "contact_person": "",
    "contact_person_role": "",
    "latitude": "",
    "longitude": ""
  },
  {
    "name": "Masjid Al-Fatiha of America",
    "address": "210 N Citrus Ave",
    "city": "Azusa",
    "state": "California",
    "zip_code": 91702,
    "country": "United States",
    "phone": "626-815-8679",
    "Website": "https://www.masjidalfatiha.org/",
    "email_primary": "masjid.alfatiha@gmail.com",
    "contact_person": "",
    "contact_person_role": "",
    "latitude": "",
    "longitude": ""
  },
  {
    "name": "Masjid Al-Rasool",
    "address": "1206 Erringer Road",
    "city": "Simi Valley",
    "state": "California",
    "zip_code": 93065,
    "country": "United States",
    "phone": "805-334--178",
    "Website": "https://www.masjid-al-rasool.com/",
    "email_primary": "masjid.rasool@gmail.com",
    "contact_person": "",
    "contact_person_role": "",
    "latitude": "",
    "longitude": ""
  },
  {
    "name": "Fatima Islamic Society",
    "address": "7252 Remmet Ave Suite 101",
    "city": "Canoga Park",
    "state": "California",
    "zip_code": 91303,
    "country": "United States",
    "phone": "818-347-8889",
    "Website": "https://fatimasociety.org/",
    "email_primary": "",
    "contact_person": "",
    "contact_person_role": "",
    "latitude": "",
    "longitude": ""
  },
  {
    "name": "Islamic Center of Chico",
    "address": "1316 Nord Avenue",
    "city": "Chico",
    "state": "California",
    "zip_code": 95926,
    "country": "United States",
    "phone": "530-342-5889",
    "Website": "https://www.chicoislamiccenter.org/",
    "email_primary": "milhan@mail.csuchico.edu",
    "contact_person": "",
    "contact_person_role": "",
    "latitude": "",
    "longitude": ""
  },
  {
    "name": "Chino Valley Islamic Center",
    "address": "4711 Chino Ave",
    "city": "Chico",
    "state": "California",
    "zip_code": 91710,
    "country": "United States",
    "phone": "909-786-1487",
    "Website": "https://cvislamiccenter.org/",
    "email_primary": "info@CVIslamicCenter.org",
    "contact_person": "",
    "contact_person_role": "",
    "latitude": "",
    "longitude": ""
  },
  {
    "name": "Al Rashid Mosque",
    "address": "13070113 Street",
    "city": "Edmonton",
    "state": "California",
    "zip_code": "",
    "country": "United States",
    "phone": "780-451-6694",
    "Website": "https://alrashidmosque.ca/",
    "email_primary": "info@alrashidmosque.ca",
    "contact_person": "",
    "contact_person_role": "",
    "latitude": "",
    "longitude": ""
  },
  {
    "name": "Dar Ul-Islam Masjid",
    "address": "2449 Buena Vista Avenue",
    "city": "Walnut Creek",
    "state": "California",
    "zip_code": 94597,
    "country": "United States",
    "phone": "925-482-0077",
    "Website": "https://www.darulislam.org/",
    "email_primary": "operations@darulislam.org",
    "contact_person": "Khaled Saleh",
    "contact_person_role": "Director of Operations",
    "latitude": "",
    "longitude": ""
  },
  {
    "name": "Islamic Center of Corona and Norco",
    "address": "465 Santana Way",
    "city": "Corona",
    "state": "California",
    "zip_code": 92881,
    "country": "United States",
    "phone": "951-736-8155",
    "Website": "https://coronamuslims.com/",
    "email_primary": "info@coronamuslims.com",
    "contact_person": "",
    "contact_person_role": "",
    "latitude": "",
    "longitude": ""
  },
  {
    "name": "Islamic Educational Center of Orange Country",
    "address": "3194-B Airport Loop Dr.",
    "city": "Costa Mesa",
    "state": "California",
    "zip_code": 92626,
    "country": "United States",
    "phone": "714-432-0062",
    "Website": "https://iecoc.org/",
    "email_primary": "info@iecoc.org",
    "contact_person": "",
    "contact_person_role": "",
    "latitude": "",
    "longitude": ""
  },
  {
    "name": "Kurdish Community Islamic Center",
    "address": "1357 Broadway",
    "city": "El Cajon",
    "state": "California",
    "zip_code": 92021,
    "country": "United States",
    "phone": "619-442-4435",
    "Website": "https://masjidashty.com/",
    "email_primary": "masjidashty2010@hotmail.com",
    "contact_person": "",
    "contact_person_role": "",
    "latitude": "",
    "longitude": ""
  },
  {
    "name": "AR-Rahman Islamic Center",
    "address": "7641 Sierra Ave, Fontana",
    "city": "Fontana",
    "state": "California",
    "zip_code": 92336,
    "country": "United States",
    "phone": "909-355-4900",
    "Website": "https://arrahmanislamiccenter.com/",
    "email_primary": "email@ArrahmanIslamicCenter.com",
    "contact_person": "",
    "contact_person_role": "",
    "latitude": "",
    "longitude": ""
  },
  {
    "name": "Al-Medina Education Center",
    "address": "5880 Thornton Ave",
    "city": "Newark",
    "state": "California",
    "zip_code": 94560,
    "country": "United States",
    "phone": "510-516-7890",
    "Website": "https://mec1.org/",
    "email_primary": "info@mec1.org",
    "contact_person": "",
    "contact_person_role": "",
    "latitude": "",
    "longitude": ""
  },
  {
    "name": "Islamic Society of East Bay",
    "address": "33330 Peace Terrace",
    "city": "Fremont",
    "state": "California",
    "zip_code": 94555,
    "country": "United States",
    "phone": "510-429-4732",
    "Website": "https://isebfremont.org/",
    "email_primary": "info@iseb.org",
    "contact_person": "",
    "contact_person_role": "",
    "latitude": "",
    "longitude": ""
  },
  {
    "name": "Ibrahim Khalilullah Islamic Center",
    "address": "1121 Old Canyon Rd.",
    "city": "Fremont",
    "state": "California",
    "zip_code": 95639,
    "country": "United States",
    "phone": "510-651-0122",
    "Website": "https://masjidikic.org/",
    "email_primary": "Fareed.Wardak@IKICenter.org",
    "contact_person": "",
    "contact_person_role": "",
    "latitude": "",
    "longitude": ""
  },
  {
    "name": "Islamic Center of Fremont",
    "address": "4039 Irvington Avenue",
    "city": "Fremont",
    "state": "California",
    "zip_code": 94538,
    "country": "United States",
    "phone": "510-661-0352",
    "Website": "https://icfbayarea.com/",
    "email_primary": "wakilahmed2012@gmail.com",
    "contact_person": "",
    "contact_person_role": "",
    "latitude": "",
    "longitude": ""
  },
  {
    "name": "Badr Islamic Center",
    "address": "7150 N Milburn Ave",
    "city": "Fresno",
    "state": "California",
    "zip_code": 93722,
    "country": "United States",
    "phone": "559-297-9535",
    "Website": "https://centrebadr.net/",
    "email_primary": "mail@al-quean.com",
    "contact_person": "",
    "contact_person_role": "",
    "latitude": "",
    "longitude": ""
  },
  {
    "name": "Islamic Society of Orange Country",
    "address": "9752 13th Street Garden Grove",
    "city": "",
    "state": "California",
    "zip_code": 92844,
    "country": "United States",
    "phone": "714-531-1722",
    "Website": "https://www.isocmasjid.org/",
    "email_primary": "info@isocmasjid.org",
    "contact_person": "",
    "contact_person_role": "",
    "latitude": "",
    "longitude": ""
  },
  {
    "name": "Islamic Center of Northridge | Granada Hills Masjid",
    "address": "11439 Encino Ave",
    "city": "Granada Hills",
    "state": "California",
    "zip_code": 91344,
    "country": "United States",
    "phone": "818-360-3500",
    "Website": "https://goicn.org/",
    "email_primary": "info@goicn.org",
    "contact_person": "",
    "contact_person_role": "",
    "latitude": "",
    "longitude": ""
  },
  {
    "name": "The Islamic Center of Hawthorne",
    "address": "12209 Hawthorne Way",
    "city": "Hawthorne",
    "state": "California",
    "zip_code": 90250,
    "country": "United States",
    "phone": "31--973-8000",
    "Website": "https://ichla.org/",
    "email_primary": "info@ichla.org",
    "contact_person": "",
    "contact_person_role": "",
    "latitude": "",
    "longitude": ""
  },
  {
    "name": "Hayward Islamic Center",
    "address": "26320 Gading Rd.",
    "city": "Hayward",
    "state": "California",
    "zip_code": 94544,
    "country": "United States",
    "phone": "510-963-5578",
    "Website": "https://www.masjidmuhajireen.org/",
    "email_primary": "info@masjidmuhajireen.org",
    "contact_person": "",
    "contact_person_role": "",
    "latitude": "",
    "longitude": ""
  },
  {
    "name": "Masjid Muhajireen",
    "address": "185 Folson Ave.",
    "city": "Hayward",
    "state": "California",
    "zip_code": 94544,
    "country": "United States",
    "phone": "510-786-0313",
    "Website": "https://www.masjidmuhajireen.org/",
    "email_primary": "info@masjidmuhajireen.org",
    "contact_person": "",
    "contact_person_role": "",
    "latitude": "",
    "longitude": ""
  },
  {
    "name": "Fatimiyya Islamic Center",
    "address": "573 Barlett Ave",
    "city": "Hayward",
    "state": "California",
    "zip_code": "",
    "country": "United States",
    "phone": "510-244-7780",
    "Website": "",
    "email_primary": "FartimiyyaCenter@gmail.com",
    "contact_person": "",
    "contact_person_role": "",
    "latitude": "",
    "longitude": ""
  },
  {
    "name": "Islamic Center of Irvine",
    "address": "2 Truman",
    "city": "Irvine",
    "state": "California",
    "zip_code": 92620,
    "country": "United States",
    "phone": "949-786-4264",
    "Website": "https://www.icoi.net/",
    "email_primary": "ws@icoi.net",
    "contact_person": "",
    "contact_person_role": "",
    "latitude": "",
    "longitude": ""
  },
  {
    "name": "Islamic Center of North Valley",
    "address": "42554 4th St. E",
    "city": "Lancaster",
    "state": "California",
    "zip_code": 93555,
    "country": "United States",
    "phone": "661-726-4749",
    "Website": "https://www.islamiccenterofnorthvalley.com/",
    "email_primary": "admin@icnvmosque.com",
    "contact_person": "",
    "contact_person_role": "",
    "latitude": "",
    "longitude": ""
  },
  {
    "name": "Masjid Usman | Center for Religious Tolerance",
    "address": "7126 Westview PI",
    "city": "Lemon Grove",
    "state": "California",
    "zip_code": 91945,
    "country": "United States",
    "phone": "619-374-1043",
    "Website": "https://masjidusman.org/",
    "email_primary": "info@MasjidUsman.org",
    "contact_person": "",
    "contact_person_role": "",
    "latitude": "",
    "longitude": ""
  },
  {
    "name": "Islamic Center of Livermore",
    "address": "379 A S. Livermore Ave",
    "city": "Livermore",
    "state": "California",
    "zip_code": 94550,
    "country": "United States",
    "phone": "925-443-1826",
    "Website": "https://iclivermore.org/",
    "email_primary": "info@iclivermore.org",
    "contact_person": "",
    "contact_person_role": "",
    "latitude": "",
    "longitude": ""
  },
  {
    "name": "Lodi Muslim Mosque",
    "address": "210 Poplar St. Lodi",
    "city": "Lodi",
    "state": "California",
    "zip_code": 95240,
    "country": "United States",
    "phone": "209-333-9619",
    "Website": "",
    "email_primary": "Lodimuslimmosque20@gmail.com",
    "contact_person": "",
    "contact_person_role": "",
    "latitude": "",
    "longitude": ""
  },
  {
    "name": "Islamic Center of Southern California",
    "address": "434 S. Vermont Ave",
    "city": "Los Angeles",
    "state": "California",
    "zip_code": 90020,
    "country": "United States",
    "phone": "213-382-9200",
    "Website": "https://www.islamiccenter.com/",
    "email_primary": "info@islamiccenter.com",
    "contact_person": "",
    "contact_person_role": "",
    "latitude": "",
    "longitude": ""
  },
  {
    "name": "Islamic Community Center of Redlands",
    "address": "24769 Redlands Blvd Suite A B C",
    "city": "Loma Linda",
    "state": "California",
    "zip_code": 92354,
    "country": "United States",
    "phone": "909-915-5920",
    "Website": "https://iccredlands.org/",
    "email_primary": "contact@iccredlands.org",
    "contact_person": "",
    "contact_person_role": "",
    "latitude": "",
    "longitude": ""
  },
  {
    "name": "Islamic Center of South Bay",
    "address": "28516 Walnut St.",
    "city": "Lomita",
    "state": "California",
    "zip_code": 90717,
    "country": "United States",
    "phone": "310-534-1363",
    "Website": "https://masjidalnoor.org/",
    "email_primary": "info@masjidalnoor.org",
    "contact_person": "",
    "contact_person_role": "",
    "latitude": "",
    "longitude": ""
  },
  {
    "name": "Masjid Al-Shareef",
    "address": "2104 Orange Ave",
    "city": "Long Beach",
    "state": "California",
    "zip_code": 90806,
    "country": "United States",
    "phone": "562-591-5320",
    "Website": "https://maslb.net/",
    "email_primary": "masjidalshareefoflongbeach57@gmail.cm",
    "contact_person": "",
    "contact_person_role": "",
    "latitude": "",
    "longitude": ""
  },
  {
    "name": "Masjid Bilal Islamic Center",
    "address": "4016 S. Central Ave",
    "city": "Los Angeles",
    "state": "California",
    "zip_code": 90011,
    "country": "United States",
    "phone": "323-233-7274",
    "Website": "https://www.masjidbilalonline.com/index.html",
    "email_primary": "bilalcenter@aol.com",
    "contact_person": "",
    "contact_person_role": "",
    "latitude": "",
    "longitude": ""
  },
  {
    "name": "Salaam Islamic Center",
    "address": "3735 Alton Pkwy",
    "city": "Irvine",
    "state": "California",
    "zip_code": 92606,
    "country": "United States",
    "phone": "",
    "Website": "",
    "email_primary": "info@salaamic.org",
    "contact_person": "",
    "contact_person_role": "",
    "latitude": "",
    "longitude": ""
  },
  {
    "name": "Masjid Umar Ibn Khattab",
    "address": "1025 Exposition Blvd",
    "city": "Los Angeles",
    "state": "California",
    "zip_code": 90007,
    "country": "United States",
    "phone": "213-733-9838",
    "Website": "https://omarfoundation.com/",
    "email_primary": "info@omarfoundation.com",
    "contact_person": "",
    "contact_person_role": "",
    "latitude": "",
    "longitude": ""
  },
  {
    "name": "Iranian American Muslim Association",
    "address": "3376 Motor Ave.",
    "city": "Los Angeles",
    "state": "California",
    "zip_code": 90034,
    "country": "United States",
    "phone": "310-202-8181",
    "Website": "https://iman.org/",
    "email_primary": "INFO@IMAN.ORG",
    "contact_person": "",
    "contact_person_role": "",
    "latitude": "",
    "longitude": ""
  },
  {
    "name": "Masjid Bilal IBN Rabah",
    "address": "696 Mount Zion Rd.",
    "city": "Morrow",
    "state": "Georgia",
    "zip_code": 30236,
    "country": "United States",
    "phone": "770-629-2220",
    "Website": "https://masjidbilalibnrabaah.com/",
    "email_primary": "info@masjidilalibnrabaah.com",
    "contact_person": "",
    "contact_person_role": "",
    "latitude": "",
    "longitude": ""
  },
  {
    "name": "Madera Islamic Center",
    "address": "16643 Road 26",
    "city": "Madera",
    "state": "California",
    "zip_code": 93638,
    "country": "United States",
    "phone": "209-725-8167",
    "Website": "https://www.masjidmadera.com/",
    "email_primary": "masjidmadera@gmail.com",
    "contact_person": "",
    "contact_person_role": "",
    "latitude": "",
    "longitude": ""
  },
  {
    "name": "Islamic Center of Milly Valley",
    "address": "62 shell Rd",
    "city": "Mill Valley",
    "state": "California",
    "zip_code": 92941,
    "country": "United States",
    "phone": "415-383-0617",
    "Website": "https://www.mvmasjid.com/",
    "email_primary": "school@mvmasjid.com info@mvmasjid.com",
    "contact_person": "",
    "contact_person_role": "",
    "latitude": "",
    "longitude": ""
  },
  {
    "name": "El Zahara Islamic Center",
    "address": "",
    "city": "",
    "state": "",
    "zip_code": "",
    "country": "United States",
    "phone": "201-670-9090",
    "Website": "https://www.elzahra.org/",
    "email_primary": "info@elzahra.org",
    "contact_person": "",
    "contact_person_role": "",
    "latitude": "",
    "longitude": ""
  },
  {
    "name": "Dar Us Salam Masjid",
    "address": "90 Dempsy Rd",
    "city": "Milpitas",
    "state": "California",
    "zip_code": 95050,
    "country": "United States",
    "phone": "408-719-9010",
    "Website": "https://alhilaal.org/home/",
    "email_primary": "info@alhilaal.org",
    "contact_person": "",
    "contact_person_role": "",
    "latitude": "",
    "longitude": ""
  },
  {
    "name": "Orange Country Islamic Foundation",
    "address": "23581 Madero Dr.",
    "city": "Mission Viejo",
    "state": "California",
    "zip_code": 92691,
    "country": "United States",
    "phone": "949-595-0480",
    "Website": "https://ocif.org/",
    "email_primary": "admin@ocif.org",
    "contact_person": "",
    "contact_person_role": "",
    "latitude": "",
    "longitude": ""
  },
  {
    "name": "Islamic Center of Modesto",
    "address": "1445 N Carpenter Rd.",
    "city": "Modesto",
    "state": "California",
    "zip_code": 95358,
    "country": "United States",
    "phone": "209-576-8149",
    "Website": "https://www.icomodesto.org/",
    "email_primary": "imam@icomodesto.org",
    "contact_person": "",
    "contact_person_role": "",
    "latitude": "",
    "longitude": ""
  },
  {
    "name": "Islamic Society of Solano County",
    "address": "P.O. Box 6153",
    "city": "Napa",
    "state": "California",
    "zip_code": 94581,
    "country": "United States",
    "phone": "707-294-9521",
    "Website": "https://www.solanocountyislamiccenter.com/",
    "email_primary": "Solanocountyislamiccenter@yahoo.com",
    "contact_person": "",
    "contact_person_role": "",
    "latitude": "",
    "longitude": ""
  },
  {
    "name": "Islamic Center of Conejo Valley",
    "address": "2700 Borchard Rd.",
    "city": "Newbury Park",
    "state": "California",
    "zip_code": 91320,
    "country": "United States",
    "phone": "805-499-2106",
    "Website": "https://iccv.org/",
    "email_primary": "iccvnews@gmail.com",
    "contact_person": "",
    "contact_person_role": "",
    "latitude": "",
    "longitude": ""
  },
  {
    "name": "Madina Islamic Center",
    "address": "12500 Firestone Blvd",
    "city": "Norwalk",
    "state": "California",
    "zip_code": 90650,
    "country": "United States",
    "phone": "562-676-7351",
    "Website": "https://madinamasjid.org/",
    "email_primary": "aka461@hotmail.com",
    "contact_person": "",
    "contact_person_role": "",
    "latitude": "",
    "longitude": ""
  },
  {
    "name": "Masjid Imam Bukhari",
    "address": "8741 Van Nuys Suite 209",
    "city": "Panorama City",
    "state": "California",
    "zip_code": 91402,
    "country": "United States",
    "phone": "818-894-3025",
    "Website": "https://imambukharimasjid.org/",
    "email_primary": "talhamajeed@hotmail.com",
    "contact_person": "",
    "contact_person_role": "",
    "latitude": "",
    "longitude": ""
  },
  {
    "name": "Islamic Center of Perris",
    "address": "3895 N. Perris Blvd",
    "city": "Perris",
    "state": "California",
    "zip_code": 92571,
    "country": "United States",
    "phone": "951-443-3929",
    "Website": "https://www.perrismasjid.com/",
    "email_primary": "IslamicCentorofPerris@gmail.com",
    "contact_person": "",
    "contact_person_role": "",
    "latitude": "",
    "longitude": ""
  },
  {
    "name": "Islamic Center Pittsburg",
    "address": "300 E. 10th St.",
    "city": "Pittsburg",
    "state": "California",
    "zip_code": 94565,
    "country": "United States",
    "phone": "925-473-0384",
    "Website": "https://www.icp-pgh.org/",
    "email_primary": "fgh@yahoo.com",
    "contact_person": "",
    "contact_person_role": "",
    "latitude": "",
    "longitude": ""
  },
  {
    "name": "Muslim Community Center of East Bay",
    "address": "5724 W. Las Positas Blvd Suite 300",
    "city": "Pleasanton",
    "state": "California",
    "zip_code": 94588,
    "country": "United States",
    "phone": "",
    "Website": "https://mcceastbay.org/",
    "email_primary": "info@mcceasthbay.org",
    "contact_person": "",
    "contact_person_role": "",
    "latitude": "",
    "longitude": ""
  },
  {
    "name": "Islamic Center of Inland Empire",
    "address": "1555 E. 3rd St.",
    "city": "Pomona",
    "state": "California",
    "zip_code": 91766,
    "country": "United States",
    "phone": "909-868-8811",
    "Website": "https://ranchomasjid.org",
    "email_primary": "admin@ranchomasjid.org",
    "contact_person": "",
    "contact_person_role": "",
    "latitude": "",
    "longitude": ""
  },
  {
    "name": "Islamic Center of Claremont",
    "address": "3641 N. Garey Ave.",
    "city": "Pomona",
    "state": "California",
    "zip_code": 91767,
    "country": "United States",
    "phone": "909-593-1865",
    "Website": "https://islamiccenterofclaremont.org/",
    "email_primary": "",
    "contact_person": "",
    "contact_person_role": "",
    "latitude": "",
    "longitude": ""
  },
  {
    "name": "Zainabia Islamic Society",
    "address": "575 N. Towne Ave.",
    "city": "Pomona",
    "state": "California",
    "zip_code": 91767,
    "country": "United States",
    "phone": "909-981-5491",
    "Website": "https://www.zainabia-la.org/",
    "email_primary": "",
    "contact_person": "",
    "contact_person_role": "",
    "latitude": "",
    "longitude": ""
  },
  {
    "name": "Islamic Center of Redlands",
    "address": "11210 Alabama St.",
    "city": "Redlands",
    "state": "California",
    "zip_code": 92373,
    "country": "United States",
    "phone": "909-792-0882",
    "Website": "https://iccredlands.org/",
    "email_primary": "contact@iccredlands.org",
    "contact_person": "",
    "contact_person_role": "",
    "latitude": "",
    "longitude": ""
  },
  {
    "name": "Islamic Center of Reseda",
    "address": "18206 Victory Blvd",
    "city": "Reseda",
    "state": "California",
    "zip_code": 91335,
    "country": "United States",
    "phone": "818-996-9116",
    "Website": "https://islamiccenterofreseda.com/",
    "email_primary": "icreseda1@aol.com",
    "contact_person": "",
    "contact_person_role": "",
    "latitude": "",
    "longitude": ""
  },
  {
    "name": "Maktab Tarighat Oveyssi Shahmaghsoudi",
    "address": "18011 Sherman Way",
    "city": "Reseda",
    "state": "California",
    "zip_code": 91335,
    "country": "United States",
    "phone": "800-820-2180",
    "Website": "https://mto.org/",
    "email_primary": "info@mto.org",
    "contact_person": "",
    "contact_person_role": "",
    "latitude": "",
    "longitude": ""
  },
  {
    "name": "Masjid Al Noor",
    "address": "1330 Cutting Blvd",
    "city": "Richmond",
    "state": "California",
    "zip_code": 94801,
    "country": "United States",
    "phone": "510-283-9966",
    "Website": "https://www.masjidalnoorrichmond.com/",
    "email_primary": "",
    "contact_person": "",
    "contact_person_role": "",
    "latitude": "",
    "longitude": ""
  },
  {
    "name": "Masjid Al Rahman",
    "address": "1110 36th st",
    "city": "Richmond",
    "state": "California",
    "zip_code": 94804,
    "country": "United States",
    "phone": "510-236-8130",
    "Website": "https://masjidalrahman.com/",
    "email_primary": "info@masjidalrahman.com",
    "contact_person": "",
    "contact_person_role": "",
    "latitude": "",
    "longitude": ""
  },
  {
    "name": "Islamic Center of Riverside",
    "address": "1038 W. Linden St.",
    "city": "Riverside",
    "state": "California",
    "zip_code": 92507,
    "country": "United States",
    "phone": "951-684-5466",
    "Website": "https://www.islamiccenterofriverside.net/",
    "email_primary": "info@risersidemasjid.com",
    "contact_person": "",
    "contact_person_role": "",
    "latitude": "",
    "longitude": ""
  },
  {
    "name": "Islamic Society of San Gabriel Valley",
    "address": "19164 E. Walnut Dr.",
    "city": "Rowland Heights",
    "state": "California",
    "zip_code": 91748,
    "country": "United States",
    "phone": "926-964-3596",
    "Website": "https://icsgv.com/",
    "email_primary": "info@icsgv.com",
    "contact_person": "",
    "contact_person_role": "",
    "latitude": "",
    "longitude": ""
  },
  {
    "name": "Islamic Center of Sacramento",
    "address": "2011 4th St.",
    "city": "Sacramento",
    "state": "California",
    "zip_code": 95818,
    "country": "United States",
    "phone": "916-444-6323",
    "Website": "https://www.masjidannur.com/",
    "email_primary": "EducationDirector@masjidannur.com",
    "contact_person": "",
    "contact_person_role": "",
    "latitude": "",
    "longitude": ""
  },
  {
    "name": "Salam Islamic Center",
    "address": "4541 College Oak Dr.",
    "city": "Sacramento",
    "state": "California",
    "zip_code": 95841,
    "country": "United States",
    "phone": "916-979-1933",
    "Website": "https://salamcenter.org/",
    "email_primary": "OfficeManager@salamcenter.org",
    "contact_person": "",
    "contact_person_role": "",
    "latitude": "",
    "longitude": ""
  },
  {
    "name": "Masjid Ibrahim",
    "address": "3449 Rio Linda Blvd",
    "city": "Sacramento",
    "state": "California",
    "zip_code": 95838,
    "country": "United States",
    "phone": "916-925-4651",
    "Website": "https://www.masjidibrahim.org/",
    "email_primary": "info@masjidibrahim.com",
    "contact_person": "",
    "contact_person_role": "",
    "latitude": "",
    "longitude": ""
  },
  {
    "name": "Masjid Annur Islamic Center",
    "address": "6990 65th St.",
    "city": "Sacramento",
    "state": "California",
    "zip_code": 95823,
    "country": "United States",
    "phone": "916-392-6687",
    "Website": "https://www.masjidannur.com/",
    "email_primary": "EducationDirector@masjidannur.com",
    "contact_person": "",
    "contact_person_role": "",
    "latitude": "",
    "longitude": ""
  },
  {
    "name": "Islamic Community of Salinas",
    "address": "333 Capitol St.",
    "city": "Salinas",
    "state": "California",
    "zip_code": 93901,
    "country": "United States",
    "phone": "831-422-0900",
    "Website": "https://www.icsalinas.org/",
    "email_primary": "imam@icsalinas.org",
    "contact_person": "",
    "contact_person_role": "",
    "latitude": "",
    "longitude": ""
  },
  {
    "name": "Masjid Hamza | Islamic Center of Mira Mesa",
    "address": "9235 Activity Rd. Suite 112",
    "city": "San Diego",
    "state": "California",
    "zip_code": 92129,
    "country": "United States",
    "phone": "619-416-6018",
    "Website": "https://www.masjidhamzasandiego.com/",
    "email_primary": "masjidhamza9235@gmail.com",
    "contact_person": "",
    "contact_person_role": "",
    "latitude": "",
    "longitude": ""
  },
  {
    "name": "Islamic Education Center of San Diego",
    "address": "8977 Activity Rd. Suite 103",
    "city": "San Diego",
    "state": "California",
    "zip_code": 92126,
    "country": "United States",
    "phone": "858-689-8888",
    "Website": "",
    "email_primary": "info@iecsd.com",
    "contact_person": "",
    "contact_person_role": "",
    "latitude": "",
    "longitude": ""
  },
  {
    "name": "Muslim Community Center of Greater San Diego",
    "address": "14698 Via Fiesta",
    "city": "San Diego",
    "state": "California",
    "zip_code": 92127,
    "country": "United States",
    "phone": "858-756-5100",
    "Website": "https://www.mccsandiego.org/",
    "email_primary": "info@mcc-gsd.org",
    "contact_person": "",
    "contact_person_role": "",
    "latitude": "",
    "longitude": ""
  },
  {
    "name": "Islamic Center of San Diego",
    "address": "7050 Eckstorm Ave.",
    "city": "San Diego",
    "state": "California",
    "zip_code": 92111,
    "country": "United States",
    "phone": "858-278-5240",
    "Website": "https://www.icsd.org/",
    "email_primary": "admin@icsd.org",
    "contact_person": "",
    "contact_person_role": "",
    "latitude": "",
    "longitude": ""
  },
  {
    "name": "Mas-San Diego",
    "address": "",
    "city": "San Diego",
    "state": "California",
    "zip_code": 92126,
    "country": "United States",
    "phone": "858-603-9221",
    "Website": "https://massandiego.org/",
    "email_primary": "admin@massandiego.org",
    "contact_person": "",
    "contact_person_role": "",
    "latitude": "",
    "longitude": ""
  },
  {
    "name": "Masjid Al Tawheed",
    "address": "9011 Elk Grove Florin Rd.",
    "city": "Elk Grove",
    "state": "California",
    "zip_code": "",
    "country": "United States",
    "phone": "916-686-9519",
    "Website": "https://www.masjidaltawheed.com/",
    "email_primary": "admin@masjidaltawheed.com",
    "contact_person": "",
    "contact_person_role": "",
    "latitude": "",
    "longitude": ""
  },
  {
    "name": "Muslim Community Center",
    "address": "850 Divisadro St",
    "city": "San Francisco",
    "state": "California",
    "zip_code": 94117,
    "country": "United States",
    "phone": "415-583-9397",
    "Website": "https://mccbrooklyn.org/",
    "email_primary": "info@mccbrooklyn.org",
    "contact_person": "",
    "contact_person_role": "",
    "latitude": "",
    "longitude": ""
  },
  {
    "name": "Islamic Center South Bay Islamic Association",
    "address": "325 N. Third St.",
    "city": "San Jose",
    "state": "California",
    "zip_code": 95112,
    "country": "United States",
    "phone": "408-947-9389",
    "Website": "https://sbia.info/",
    "email_primary": "sbia@sbia.info",
    "contact_person": "",
    "contact_person_role": "",
    "latitude": "",
    "longitude": ""
  },
  {
    "name": "Saba Islamic Center",
    "address": "4415 Fortan Ct.",
    "city": "San Jose",
    "state": "California",
    "zip_code": 95134,
    "country": "United States",
    "phone": "408-946-5700",
    "Website": "https://www.saba-igc.org/",
    "email_primary": "saba@saba-igc.org webmaster@saba-igc.org",
    "contact_person": "",
    "contact_person_role": "",
    "latitude": "",
    "longitude": ""
  },
  {
    "name": "Islamic Community of Bay Area Bosniaks",
    "address": "1445 Fortran Ct.",
    "city": "San Jose",
    "state": "California",
    "zip_code": 95112,
    "country": "United States",
    "phone": "408-441-0540",
    "Website": "https://icbab.org/",
    "email_primary": "sanjosedzemat2016@gmail.com",
    "contact_person": "",
    "contact_person_role": "",
    "latitude": "",
    "longitude": ""
  },
  {
    "name": "Masjid Al Rasool",
    "address": "552 S. Bascan Ave.",
    "city": "San Jose",
    "state": "California",
    "zip_code": 95128,
    "country": "United States",
    "phone": "408-364-0666",
    "Website": "https://www.masjid-al-rasool.com/",
    "email_primary": "masjid.rasool@gmail.com",
    "contact_person": "",
    "contact_person_role": "",
    "latitude": "",
    "longitude": ""
  },
  {
    "name": "Central Cost Islamic Center",
    "address": "327 Plaza Dr",
    "city": "Santa Maria",
    "state": "California",
    "zip_code": 93401,
    "country": "United States",
    "phone": "805-352-1922",
    "Website": "https://ccicmasjid.org/",
    "email_primary": "info@ccicmasjid.org",
    "contact_person": "",
    "contact_person_role": "",
    "latitude": "",
    "longitude": ""
  },
  {
    "name": "South Valley Islamic Community",
    "address": "14770 Columbet Ave.",
    "city": "San Martin",
    "state": "California",
    "zip_code": 95046,
    "country": "United States",
    "phone": "408-535-0112",
    "Website": "https://svic.org/",
    "email_primary": "svic@svic.org",
    "contact_person": "",
    "contact_person_role": "",
    "latitude": "",
    "longitude": ""
  },
  {
    "name": "Masjid Al Haq",
    "address": "228 N. Ellsworth St.",
    "city": "San Mateo",
    "state": "California",
    "zip_code": 94401,
    "country": "United States",
    "phone": "650-678-7893",
    "Website": "https://www.masjidulhaqq.com/",
    "email_primary": "masjidulhaqqsanmateo@gmail.com",
    "contact_person": "",
    "contact_person_role": "",
    "latitude": "",
    "longitude": ""
  },
  {
    "name": "San Ramon Valley Islamic Center",
    "address": "2232 B Camino Ramon",
    "city": "San Ramon",
    "state": "California",
    "zip_code": 94583,
    "country": "United States",
    "phone": "925-866-7088",
    "Website": "https://srvic.org/",
    "email_primary": "webmaster@srvic.org",
    "contact_person": "",
    "contact_person_role": "",
    "latitude": "",
    "longitude": ""
  },
  {
    "name": "Imamia Education Center",
    "address": "2110 E 1St Suite 120",
    "city": "Santa Ana",
    "state": "California",
    "zip_code": 92705,
    "country": "United States",
    "phone": "714-524-5580",
    "Website": "https://www.imamia.org/",
    "email_primary": "aamithani@yahoo.com",
    "contact_person": "Amir Mithani",
    "contact_person_role": "Director",
    "latitude": "",
    "longitude": ""
  },
  {
    "name": "Muslim Community Association",
    "address": "3003 Scott Blvd",
    "city": "Santa Clara",
    "state": "California",
    "zip_code": "",
    "country": "United States",
    "phone": "408-747-7277",
    "Website": "https://mcabayarea.org/",
    "email_primary": "info@mcabayarea.org",
    "contact_person": "",
    "contact_person_role": "",
    "latitude": "",
    "longitude": ""
  },
  {
    "name": "Islamic Society of Santa Rosa",
    "address": "545 Mendocino Ave",
    "city": "Santa Rosa",
    "state": "California",
    "zip_code": 95401,
    "country": "United States",
    "phone": "707-525-1144",
    "Website": "https://islamicsocietysr.org/",
    "email_primary": "info@islamicsociety-sr.org",
    "contact_person": "",
    "contact_person_role": "",
    "latitude": "",
    "longitude": ""
  },
  {
    "name": "West Valley Muslim Associatin",
    "address": "12370 Saratoga Sunnyvale Rd.",
    "city": "Saratoga",
    "state": "California",
    "zip_code": 95070,
    "country": "United States",
    "phone": "408-805-4560",
    "Website": "https://wvmuslim.org/",
    "email_primary": "info@wvmuslim.org",
    "contact_person": "",
    "contact_person_role": "",
    "latitude": "",
    "longitude": ""
  },
  {
    "name": "Islamic Society of Monterey County",
    "address": "405 Elm Ave",
    "city": "Seaside",
    "state": "California",
    "zip_code": 93955,
    "country": "United States",
    "phone": "831-393-4003",
    "Website": "https://ismcca.org/",
    "email_primary": "ismc405@gmail.com",
    "contact_person": "",
    "contact_person_role": "",
    "latitude": "",
    "longitude": ""
  },
  {
    "name": "Al Zahra Islamic Center",
    "address": "8152 Seville Ave.",
    "city": "South Gate",
    "state": "California",
    "zip_code": 90280,
    "country": "United States",
    "phone": "323-835-0633",
    "Website": "https://www.elzahra.org/",
    "email_primary": "info@elzahra.org",
    "contact_person": "",
    "contact_person_role": "",
    "latitude": "",
    "longitude": ""
  },
  {
    "name": "Masjid As Sadiq",
    "address": "2065 E. 8th St.",
    "city": "Stockton",
    "state": "California",
    "zip_code": 95206,
    "country": "United States",
    "phone": "209-941-4915",
    "Website": "https://masjid.assiddiq.org/",
    "email_primary": "masjid@assiddiq.org",
    "contact_person": "",
    "contact_person_role": "",
    "latitude": "",
    "longitude": ""
  },
  {
    "name": "Stockton Student Mosque",
    "address": "1219 El Monte St.",
    "city": "Stockton",
    "state": "California",
    "zip_code": 95207,
    "country": "United States",
    "phone": "209-474-3184",
    "Website": "http://www.masjidalemaan.com/",
    "email_primary": "info@masjidalemaan.com",
    "contact_person": "",
    "contact_person_role": "",
    "latitude": "",
    "longitude": ""
  },
  {
    "name": "Masjid Al-Emaan",
    "address": "4212 N. Pershing Ave.",
    "city": "Stockton",
    "state": "California",
    "zip_code": 95207,
    "country": "United States",
    "phone": "209-688-2594",
    "Website": "https://masjidulemaan.com/",
    "email_primary": "info@masjidulemaan.com",
    "contact_person": "",
    "contact_person_role": "",
    "latitude": "",
    "longitude": ""
  },
  {
    "name": "Islamic Center of Sunnyvale",
    "address": "1260 Persian Dr. Suite A1",
    "city": "Sunnyvale",
    "state": "California",
    "zip_code": 94089,
    "country": "United States",
    "phone": "408-274-5514",
    "Website": "https://tahausa.org/",
    "email_primary": "admin@tahausa.org",
    "contact_person": "",
    "contact_person_role": "",
    "latitude": "",
    "longitude": ""
  },
  {
    "name": "Islamic Center of Temecula Valley",
    "address": "42188 Rio Nedo Suite A",
    "city": "Temecula",
    "state": "California",
    "zip_code": 92590,
    "country": "United States",
    "phone": "951-296-6601",
    "Website": "https://icotv.org/",
    "email_primary": "secretary@icotv.org",
    "contact_person": "Br. Bahat Akari",
    "contact_person_role": "Education Committe Chairperson",
    "latitude": "",
    "longitude": ""
  },
  {
    "name": "Tracy Islamic Center",
    "address": "11970 Larch Road",
    "city": "Tracy",
    "state": "California",
    "zip_code": 95304,
    "country": "United States",
    "phone": "209-830-6286",
    "Website": "https://www.tracyislamiccenter.org/",
    "email_primary": "info@tracyislamiccenter.org",
    "contact_person": "",
    "contact_person_role": "",
    "latitude": "",
    "longitude": ""
  },
  {
    "name": "Islamic Society of Tracy",
    "address": "350 N. Corral Hollow",
    "city": "Tracy",
    "state": "California",
    "zip_code": 95376,
    "country": "United States",
    "phone": "209-839-2275",
    "Website": "https://www.isotracy.org/",
    "email_primary": "isotracyca@gmail.com",
    "contact_person": "",
    "contact_person_role": "",
    "latitude": "",
    "longitude": ""
  },
  {
    "name": "Jafaria Islamic Society",
    "address": "642 South B St.",
    "city": "Tustin",
    "state": "California",
    "zip_code": 92780,
    "country": "United States",
    "phone": "323-560-8002",
    "Website": "https://www.jafaria.org/jafaria_site/",
    "email_primary": "INFO@JAFARIA.ORG",
    "contact_person": "",
    "contact_person_role": "",
    "latitude": "",
    "longitude": ""
  },
  {
    "name": "Islamic Center of Vallejo",
    "address": "727 Sonoma Blvd",
    "city": "Vallejo",
    "state": "California",
    "zip_code": 94590,
    "country": "United States",
    "phone": "707-558-8229",
    "Website": "https://www.islamiccenterofvallejo.org/",
    "email_primary": "",
    "contact_person": "",
    "contact_person_role": "",
    "latitude": "",
    "longitude": ""
  },
  {
    "name": "Masjid Al Ittehad",
    "address": "925 Anza Ave",
    "city": "Vista",
    "state": "California",
    "zip_code": 92084,
    "country": "United States",
    "phone": "760-954-9544",
    "Website": "https://www.masjidalittehad.com/",
    "email_primary": "info@masjidalittehad.com",
    "contact_person": "",
    "contact_person_role": "",
    "latitude": "",
    "longitude": ""
  },
  {
    "name": "Masjid Al-Furqan",
    "address": "659 Brea Canyon Rd",
    "city": "Walnut",
    "state": "California",
    "zip_code": 91789,
    "country": "United States",
    "phone": "909-594-1310",
    "Website": "http://markazalfurqaan.org/",
    "email_primary": "info@markazalfurqaan.org",
    "contact_person": "",
    "contact_person_role": "",
    "latitude": "",
    "longitude": ""
  },
  {
    "name": "Masjid Aisha",
    "address": "700 Glide Ave",
    "city": "West Sacramento",
    "state": "California",
    "zip_code": 95691,
    "country": "United States",
    "phone": "916-372-9031",
    "Website": "https://masjidaisha.com/",
    "email_primary": "info@masjidaisha.com",
    "contact_person": "",
    "contact_person_role": "",
    "latitude": "",
    "longitude": ""
  },
  {
    "name": "Salam Islamic Center",
    "address": "4545 College Oak Dr",
    "city": "Sacramento",
    "state": "California",
    "zip_code": 95841,
    "country": "United States",
    "phone": "916-979-1933",
    "Website": "https://salamcenter.org/",
    "email_primary": "officemanager@salamcenter.org",
    "contact_person": "",
    "contact_person_role": "",
    "latitude": "",
    "longitude": ""
  },
  {
    "name": "Islamic Center of Boulder",
    "address": "1530 Culver St",
    "city": "Boulder",
    "state": "Colorado",
    "zip_code": 80303,
    "country": "United States",
    "phone": "303-444-6345",
    "Website": "https://bouldermuslims.com/",
    "email_primary": "",
    "contact_person": "",
    "contact_person_role": "",
    "latitude": "",
    "longitude": ""
  },
  {
    "name": "Masjid Al-Farooq | Islamic Society of Colorado Springs",
    "address": "2125 N. Chestnut",
    "city": "Colorado Springs",
    "state": "Colorado",
    "zip_code": 80907,
    "country": "United States",
    "phone": "719-632-3364",
    "Website": "https://iscs.info/",
    "email_primary": "iscs.info.contact@gmail.com",
    "contact_person": "",
    "contact_person_role": "",
    "latitude": "",
    "longitude": ""
  },
  {
    "name": "Rocky Mountain Islamic Center",
    "address": "7510 W Mississipi Ave.",
    "city": "Lakewood",
    "state": "Colorado",
    "zip_code": "",
    "country": "United States",
    "phone": "720-583-4463",
    "Website": "",
    "email_primary": "rmislamiccenter@gmail.com",
    "contact_person": "",
    "contact_person_role": "",
    "latitude": "",
    "longitude": ""
  },
  {
    "name": "An-Nur Masjid | Deven Islamic Society",
    "address": "2124 S. Birch",
    "city": "Denver",
    "state": "Colorado",
    "zip_code": 80222,
    "country": "United States",
    "phone": "303-759-1985",
    "Website": "",
    "email_primary": "dis.birchstreet@gmail.com",
    "contact_person": "",
    "contact_person_role": "",
    "latitude": "",
    "longitude": ""
  },
  {
    "name": "Masjid abu Bakr | Colorado Muslim Society",
    "address": "2071 S. Parker Rd",
    "city": "Denver",
    "state": "Colorado",
    "zip_code": 80231,
    "country": "United States",
    "phone": "303-696-9800",
    "Website": "https://coloradomuslimsociety.org/",
    "email_primary": "denvermosque@yahoo.com",
    "contact_person": "",
    "contact_person_role": "",
    "latitude": "",
    "longitude": ""
  },
  {
    "name": "South Denver Islamic Society",
    "address": "7007 S Clinton St.",
    "city": "Greenwood Village",
    "state": "Colorado",
    "zip_code": 80112,
    "country": "United States",
    "phone": "720-772-7342",
    "Website": "https://www.khadeejah.org/",
    "email_primary": "president@masjidkhadeejah.org",
    "contact_person": "",
    "contact_person_role": "",
    "latitude": "",
    "longitude": ""
  },
  {
    "name": "Masjid Ikhlas | Metropolitan Denver North Islamic Center",
    "address": "1141 Irma Dr.",
    "city": "Northglenn",
    "state": "Colorado",
    "zip_code": 90233,
    "country": "United States",
    "phone": "303-920-0252",
    "Website": "www.masjidikhlas.org/",
    "email_primary": "office@masjidikhlas.org",
    "contact_person": "",
    "contact_person_role": "",
    "latitude": "",
    "longitude": ""
  },
  {
    "name": "Bosmian Educational And Cultural Center",
    "address": "7280 Irving St B206",
    "city": "Westminister",
    "state": "Colorado",
    "zip_code": 80030,
    "country": "United States",
    "phone": "303-283-6004",
    "Website": "https://becca-chicago.com/",
    "email_primary": "info@bicc-chicago.com",
    "contact_person": "",
    "contact_person_role": "",
    "latitude": "",
    "longitude": ""
  },
  {
    "name": "Farmington Valley American Muslim Center",
    "address": "35 Harris Rd,",
    "city": "Avon",
    "state": "Connecticut",
    "zip_code": 6001,
    "country": "United States",
    "phone": "860-673-9680",
    "Website": "https://www.fvamc.org/",
    "email_primary": "info@fvamc.org",
    "contact_person": "",
    "contact_person_role": "",
    "latitude": "",
    "longitude": ""
  },
  {
    "name": "Islamic Society of Greater Hartford",
    "address": "1781 Wilbur Cross Hwy",
    "city": "Berlin",
    "state": "Connecticut",
    "zip_code": 6037,
    "country": "United States",
    "phone": "860-829-6411",
    "Website": "https://www.berlinmosque.org/",
    "email_primary": "webmaster@berlinmosque.or",
    "contact_person": "Dr. Fadi Hammami",
    "contact_person_role": "Co-President",
    "latitude": "",
    "longitude": ""
  },
  {
    "name": "BridgePort Islamic Community Center",
    "address": "525 Clinton Ave.",
    "city": "Bridgeport",
    "state": "Connecticut",
    "zip_code": 6605,
    "country": "United States",
    "phone": "203-362-2527",
    "Website": "https://www.mybicc.org/",
    "email_primary": "info@mybicc.org",
    "contact_person": "",
    "contact_person_role": "",
    "latitude": "",
    "longitude": ""
  },
  {
    "name": "Masjid An-Noor | Bridgeport Islamic Society",
    "address": "1300 Fairfield Ave",
    "city": "Bridgeport",
    "state": "Connecticut",
    "zip_code": 6605,
    "country": "United States",
    "phone": "203-579-221",
    "Website": "https://masjidan-noor.com/",
    "email_primary": "media.masjidannoor@gmail.com",
    "contact_person": "",
    "contact_person_role": "",
    "latitude": "",
    "longitude": ""
  },
  {
    "name": "Danbury Masjid | Islamic Society of Western Connecticut",
    "address": "388 Main Street",
    "city": "Danbury",
    "state": "Connecticut",
    "zip_code": 6810,
    "country": "United States",
    "phone": "203-744-1328",
    "Website": "http://danburymasjid.com/",
    "email_primary": "iswcdanburymasjid@gmail.com",
    "contact_person": "",
    "contact_person_role": "",
    "latitude": "",
    "longitude": ""
  },
  {
    "name": "Masjid Al Hedaya | Muslim Society of Greater Danbury",
    "address": "18 Great Plain Rd.",
    "city": "Danbury",
    "state": "Connecticut",
    "zip_code": 6810,
    "country": "United States",
    "phone": "203-300-9326",
    "Website": "https://hedayacenter.org/",
    "email_primary": "eman.school@gmail.org",
    "contact_person": "",
    "contact_person_role": "",
    "latitude": "",
    "longitude": ""
  },
  {
    "name": "Islamic Center of Connecticut",
    "address": "140 White Rock Dr.",
    "city": "Hartford",
    "state": "Connecticut",
    "zip_code": 6115,
    "country": "United States",
    "phone": "860-249-0112",
    "Website": "http://icct.org/",
    "email_primary": "webmaster@icct.org, info@icct.org",
    "contact_person": "",
    "contact_person_role": "",
    "latitude": "",
    "longitude": ""
  },
  {
    "name": "Mosque Baitul Aman",
    "address": "410 Main Street",
    "city": "Meriden",
    "state": "Connecticut",
    "zip_code": 6451,
    "country": "United States",
    "phone": "860-670-6402",
    "Website": "https://edu.ahmadiyya.us/",
    "email_primary": "Connecticut@mkausa.org",
    "contact_person": "",
    "contact_person_role": "",
    "latitude": "",
    "longitude": ""
  },
  {
    "name": "Masjid Al Taqwa",
    "address": "47 Sait Clair Ave",
    "city": "New Britain",
    "state": "Connecticut",
    "zip_code": 6051,
    "country": "United States",
    "phone": "860-223-9131",
    "Website": "http://www.altaqwamasjid.com/",
    "email_primary": "masjidaltaqwa@ymail.com",
    "contact_person": "",
    "contact_person_role": "",
    "latitude": "",
    "longitude": ""
  },
  {
    "name": "Islamic Association of Greater Hartford",
    "address": "1781 Berlin Tpke",
    "city": "Berlin",
    "state": "Connecticut",
    "zip_code": "",
    "country": "United States",
    "phone": "860-829-6411",
    "Website": "https://berlinmosque.org/",
    "email_primary": "berlinmo@berlinmosque.org",
    "contact_person": "",
    "contact_person_role": "",
    "latitude": "",
    "longitude": ""
  },
  {
    "name": "Jafaria Association of Connecticut",
    "address": "1 Meriden",
    "city": "Rockfall",
    "state": "Connecticut",
    "zip_code": 6481,
    "country": "United States",
    "phone": "203-468-2961",
    "Website": "https://jaoct.org/",
    "email_primary": "jafariacenter@jaoct.org",
    "contact_person": "",
    "contact_person_role": "",
    "latitude": "",
    "longitude": ""
  },
  {
    "name": "Monre Masjid",
    "address": "57 Pepper St",
    "city": "Monroe",
    "state": "Connecticut",
    "zip_code": 6468,
    "country": "United States",
    "phone": "981-787-52625",
    "Website": "https://www.monroemasjid.org/",
    "email_primary": "monroemasjid@gmail.com",
    "contact_person": "",
    "contact_person_role": "",
    "latitude": "",
    "longitude": ""
  },
  {
    "name": "Islamic Society of Stamford",
    "address": "82 Harbor Dr",
    "city": "Stamford",
    "state": "Connecticut",
    "zip_code": 6902,
    "country": "United States",
    "phone": "203-255-4327",
    "Website": "https://www.stamfordislamiccenter.com/",
    "email_primary": "info@stamfordislamiccenter.com",
    "contact_person": "",
    "contact_person_role": "",
    "latitude": "",
    "longitude": ""
  },
  {
    "name": "Stamford Islamic Center",
    "address": "10 Outlook St.",
    "city": "Stamford",
    "state": "Connecticut",
    "zip_code": 6902,
    "country": "United States",
    "phone": "203-975-2642",
    "Website": "https://www.stamfordislamiccenter.com/",
    "email_primary": "info@stamfordislamiccenter.com",
    "contact_person": "",
    "contact_person_role": "",
    "latitude": "",
    "longitude": ""
  },
  {
    "name": "Masjid 'Eesa ibn Maryam | NYC Muslim Center",
    "address": "90-20191st",
    "city": "Hollis",
    "state": "New York",
    "zip_code": 11423,
    "country": "United States",
    "phone": "718-776-7291",
    "Website": "https://www.masjideesa.org/",
    "email_primary": "info@masjidEesa.org",
    "contact_person": "",
    "contact_person_role": "",
    "latitude": "",
    "longitude": ""
  },
  {
    "name": "United Muslim Masjid",
    "address": "132 Prospect St.",
    "city": "Waterbury",
    "state": "Connecticut",
    "zip_code": 6710,
    "country": "United States",
    "phone": "203-756-6365",
    "Website": "https://www.ummonline.org/",
    "email_primary": "info@ummonline.org",
    "contact_person": "",
    "contact_person_role": "",
    "latitude": "",
    "longitude": ""
  },
  {
    "name": "Masjid Al-Mostafa",
    "address": "120 Schraffts Dr",
    "city": "Waterbury",
    "state": "Connecticut",
    "zip_code": 6705,
    "country": "United States",
    "phone": "203-597-7676",
    "Website": "https://www.iasconnect.org/",
    "email_primary": "iascmasjidmustafa@gmail.com Iasconnect@sbcglobal.net",
    "contact_person": "",
    "contact_person_role": "",
    "latitude": "",
    "longitude": ""
  },
  {
    "name": "Albanian American Culture & Islamic Center",
    "address": "106 Columbia Blvd",
    "city": "Waterbury",
    "state": "Connecticut",
    "zip_code": 6710,
    "country": "United States",
    "phone": "203-755-0687",
    "Website": "https://albanianamericanislamiccenter.com/",
    "email_primary": "office@albanianilamiccenter.com",
    "contact_person": "",
    "contact_person_role": "",
    "latitude": "",
    "longitude": ""
  },
  {
    "name": "New Haven Islamic Center",
    "address": "2 Prudden St.",
    "city": "West Haven",
    "state": "Connecticut",
    "zip_code": 6516,
    "country": "United States",
    "phone": "203-937-5799",
    "Website": "https://www.nhicct.org/",
    "email_primary": "info@nhicct.org",
    "contact_person": "",
    "contact_person_role": "",
    "latitude": "",
    "longitude": ""
  },
  {
    "name": "Islamic Society of Central Delaware",
    "address": "7953 S. Dupont Hwy",
    "city": "Felton",
    "state": "Delaware",
    "zip_code": 19943,
    "country": "United States",
    "phone": "302-382-2977",
    "Website": "http://www.isocde.org/",
    "email_primary": "inquiry@isocde.org",
    "contact_person": "",
    "contact_person_role": "",
    "latitude": "",
    "longitude": ""
  },
  {
    "name": "Masjid Ibrahim | Islamic Society of Delaware",
    "address": "28 Salem Church Rd.",
    "city": "Newark",
    "state": "Delaware",
    "zip_code": 19713,
    "country": "United States",
    "phone": "302-733-0273",
    "Website": "https://isdonline.org/masjid-ibrahim",
    "email_primary": "info@isdonline.org",
    "contact_person": "",
    "contact_person_role": "",
    "latitude": "",
    "longitude": ""
  },
  {
    "name": "Masjid Isa ibn-e-Maryam Foundation",
    "address": "706 S old Baltimore Pile",
    "city": "Newark",
    "state": "Delaware",
    "zip_code": 19702,
    "country": "United States",
    "phone": "302-786-5202",
    "Website": "https://tarbiyahschool.org/",
    "email_primary": "admin@masjidsa.org",
    "contact_person": "",
    "contact_person_role": "",
    "latitude": "",
    "longitude": ""
  },
  {
    "name": "Masjid Al Kauthar",
    "address": "2102 Northeast Blvd",
    "city": "Wilmington",
    "state": "Delaware",
    "zip_code": 19802,
    "country": "United States",
    "phone": "302-571-0532",
    "Website": "https://masjidalkauthar.org/",
    "email_primary": "weekendschool@masjidalkauthar.org",
    "contact_person": "",
    "contact_person_role": "",
    "latitude": "",
    "longitude": ""
  },
  {
    "name": "First Hijrah Muslim Community Center",
    "address": "4324 Georgia Ave NW",
    "city": "Washington",
    "state": "DC",
    "zip_code": 20011,
    "country": "United States",
    "phone": "703-933-0501",
    "Website": "https://firsthijrah.org/",
    "email_primary": "info@firsthijrah.org",
    "contact_person": "",
    "contact_person_role": "",
    "latitude": "",
    "longitude": ""
  },
  {
    "name": "Masjid Ush Shura | Islamic Center of Greater Southest",
    "address": "3109 Martin Luther King Ave. Se",
    "city": "Washington",
    "state": "DC",
    "zip_code": 20032,
    "country": "United States",
    "phone": "202-487-1024",
    "Website": "https://masjidashshura.org/",
    "email_primary": "masjidashshurava@gmail.com",
    "contact_person": "",
    "contact_person_role": "",
    "latitude": "",
    "longitude": ""
  },
  {
    "name": "Masjid Muhammad",
    "address": "1519 Islamic Way Nw",
    "city": "Washington",
    "state": "DC",
    "zip_code": 20001,
    "country": "United States",
    "phone": "202-483-8832",
    "Website": "https://thenationsmosque.org/",
    "email_primary": "info@thenationsmosque.com",
    "contact_person": "",
    "contact_person_role": "",
    "latitude": "",
    "longitude": ""
  },
  {
    "name": "Islamic Center of Boca Raton",
    "address": "3100 Nw 5th Ave",
    "city": "Boca Raton",
    "state": "Florida",
    "zip_code": 33431,
    "country": "United States",
    "phone": "561-395-7221",
    "Website": "https://icbr.org/",
    "email_primary": "masjid@icbr.org",
    "contact_person": "",
    "contact_person_role": "",
    "latitude": "",
    "longitude": ""
  },
  {
    "name": "Alhuda Islamic Center | Florida Islamic Education Center",
    "address": "831 E. Palmetto Park Rd",
    "city": "Boca Raton",
    "state": "Florida",
    "zip_code": 33432,
    "country": "United States",
    "phone": "561-361-7033",
    "Website": "https://www.alhudaglobalschool.org/",
    "email_primary": "global@alhuda.org",
    "contact_person": "",
    "contact_person_role": "",
    "latitude": "",
    "longitude": ""
  },
  {
    "name": "American Islamic Center of Florida",
    "address": "807 N. Federal Hwy",
    "city": "Boca Raton",
    "state": "Florida",
    "zip_code": 33432,
    "country": "United States",
    "phone": "561-900-4330",
    "Website": "https://aicfmasjid.com/",
    "email_primary": "aicfmails@gmail.com",
    "contact_person": "",
    "contact_person_role": "",
    "latitude": "",
    "longitude": ""
  },
  {
    "name": "Assalam Center of Boca Raton",
    "address": "1499 Nw 4th Ave",
    "city": "Boca Raton",
    "state": "Florida",
    "zip_code": 33432,
    "country": "United States",
    "phone": "561-391-8285",
    "Website": "https://assalamcenter.org/",
    "email_primary": "AssalamCenter96@gmail.com",
    "contact_person": "",
    "contact_person_role": "",
    "latitude": "",
    "longitude": ""
  },
  {
    "name": "Bonita Masjid",
    "address": "28181 Pine Haven Way Unit 137",
    "city": "",
    "state": "Florida",
    "zip_code": "",
    "country": "United States",
    "phone": 2394448588,
    "Website": "https://www.bonitamasjid.com/",
    "email_primary": "info@Bonitamasjid.biz",
    "contact_person": "",
    "contact_person_role": "",
    "latitude": "",
    "longitude": ""
  },
  {
    "name": "Al-Amin Center of Florida",
    "address": "8101 South Military Trail",
    "city": "Boynton Beach",
    "state": "Florida",
    "zip_code": 33436,
    "country": "United States",
    "phone": "551-859-2296",
    "Website": "https://www.alamincenterflorida.org/",
    "email_primary": "info@alamincenter.cemcastbiz.net",
    "contact_person": "",
    "contact_person_role": "",
    "latitude": "",
    "longitude": ""
  },
  {
    "name": "Islamic Center of Brandon",
    "address": "613 E. Morgan St.",
    "city": "Brandon",
    "state": "Florida",
    "zip_code": 33510,
    "country": "United States",
    "phone": "321-243-0693",
    "Website": "https://www.brandonmasjid.org/",
    "email_primary": "admin@brandonmasjid.org",
    "contact_person": "",
    "contact_person_role": "",
    "latitude": "",
    "longitude": ""
  },
  {
    "name": "Islamic Center of Clermont",
    "address": "15128 Lost Lake Rd",
    "city": "Clermont",
    "state": "Florida",
    "zip_code": 34711,
    "country": "United States",
    "phone": "407-267-8320",
    "Website": "https://clermontmasjid.org/",
    "email_primary": "haseebikhan@yahoo.com",
    "contact_person": "",
    "contact_person_role": "",
    "latitude": "",
    "longitude": ""
  },
  {
    "name": "Islamic Center of South Lake County",
    "address": "1208 Bowman St",
    "city": "Clermont",
    "state": "Florida",
    "zip_code": 34711,
    "country": "United States",
    "phone": "352-636-4956",
    "Website": "https://www.icoslc.com/",
    "email_primary": "imamshady@yahoo.com",
    "contact_person": "Bro. Amzad Raymond Ally",
    "contact_person_role": "Chairman",
    "latitude": "",
    "longitude": ""
  },
  {
    "name": "Nur Ul Islam Masjid | Nur Ul Islam of South Florida",
    "address": "10600 Sw 59th St.",
    "city": "Cooper City",
    "state": "Florida",
    "zip_code": 33328,
    "country": "United States",
    "phone": "954-434-3855",
    "Website": "https://nurulislam.org/",
    "email_primary": "nurulislamfl@gmail.com",
    "contact_person": "",
    "contact_person_role": "",
    "latitude": "",
    "longitude": ""
  },
  {
    "name": "Islamic Center of Daytona",
    "address": "347 S. Keach St.",
    "city": "Daytona Beach",
    "state": "Florida",
    "zip_code": 32114,
    "country": "United States",
    "phone": "386-252-3501",
    "Website": "https://ic-db.weebly.com/",
    "email_primary": "info@ic-db.org",
    "contact_person": "",
    "contact_person_role": "",
    "latitude": "",
    "longitude": ""
  },
  {
    "name": "Islamic Society of Cental Florida",
    "address": "1350 Gilpin Ct.",
    "city": "Deltona",
    "state": "Florida",
    "zip_code": 32725,
    "country": "United States",
    "phone": "386-860-3501",
    "Website": "https://iscf.org/",
    "email_primary": "",
    "contact_person": "",
    "contact_person_role": "",
    "latitude": "",
    "longitude": ""
  },
  {
    "name": "Association of Islamic Charitable projects",
    "address": "2820 Griffin Rd",
    "city": "Fort Lauderdale",
    "state": "Florida",
    "zip_code": 33312,
    "country": "United States",
    "phone": "954-986-1373",
    "Website": "https://www.aicp.org/",
    "email_primary": "musallaassultan@gmail.com",
    "contact_person": "",
    "contact_person_role": "",
    "latitude": "",
    "longitude": ""
  },
  {
    "name": "Masjid Al Iman of Fort Lauderdale",
    "address": "2542 Franklin Drive",
    "city": "Fort Lauderdale",
    "state": "Florida",
    "zip_code": 33311,
    "country": "United States",
    "phone": "954-581-6295",
    "Website": "https://masjidaliman.com/",
    "email_primary": "office@masjidaliman.com",
    "contact_person": "",
    "contact_person_role": "",
    "latitude": "",
    "longitude": ""
  },
  {
    "name": "Islamic Center of Broward",
    "address": "8658 Nw 44th St.",
    "city": "Fort Lauderdale",
    "state": "Florida",
    "zip_code": 33351,
    "country": "United States",
    "phone": "954-741-4214",
    "Website": "http://icbfl.com/",
    "email_primary": "icbflorida@gmail.com",
    "contact_person": "",
    "contact_person_role": "",
    "latitude": "",
    "longitude": ""
  },
  {
    "name": "Islamic Center for Peace",
    "address": "2056 Linhart Ave",
    "city": "Fort Myers",
    "state": "Florida",
    "zip_code": 33901,
    "country": "United States",
    "phone": "239-671-1761",
    "Website": "https://iscf.org/",
    "email_primary": "madarani@ic-eace.com",
    "contact_person": "",
    "contact_person_role": "",
    "latitude": "",
    "longitude": ""
  },
  {
    "name": "Center for Islam & Cultural Awareness",
    "address": "2371 Crawford St.",
    "city": "Fort Myers",
    "state": "Florida",
    "zip_code": 33901,
    "country": "United States",
    "phone": "239-334-8778",
    "Website": "https://cicaftmyers.org/",
    "email_primary": "cicaftmyers.fl@gmail.com",
    "contact_person": "",
    "contact_person_role": "",
    "latitude": "",
    "longitude": ""
  },
  {
    "name": "House of the Believesrs - Islamic Center of Fort Pierce",
    "address": "3607 Oleander Ave.",
    "city": "Fort Pierce",
    "state": "Florida",
    "zip_code": 34982,
    "country": "United States",
    "phone": "772-465-9200",
    "Website": "https://www.icfp-fl.com/",
    "email_primary": "houseofthebelievers@gmail.com",
    "contact_person": "",
    "contact_person_role": "",
    "latitude": "",
    "longitude": ""
  },
  {
    "name": "Islamic Center of Muslim Friends",
    "address": "2181 N. Bridge Plaza",
    "city": "Ft. Pierce",
    "state": "Florida",
    "zip_code": 34950,
    "country": "United States",
    "phone": "772-462-0242",
    "Website": "https://icgmasjid.org/",
    "email_primary": "info@icgmasjid.org",
    "contact_person": "",
    "contact_person_role": "",
    "latitude": "",
    "longitude": ""
  },
  {
    "name": "Hoda Center",
    "address": "5220 Sw 13th St",
    "city": "Gainesville",
    "state": "Florida",
    "zip_code": 32608,
    "country": "United States",
    "phone": "352-377-8080",
    "Website": "https://hodacenter.org/",
    "email_primary": "hodacenter@hotmail.com",
    "contact_person": "",
    "contact_person_role": "",
    "latitude": "",
    "longitude": ""
  },
  {
    "name": "Islamic Center of Gainesville",
    "address": "1010 W. University Area",
    "city": "Gainesville",
    "state": "Florida",
    "zip_code": 32601,
    "country": "United States",
    "phone": "352-372-1980",
    "Website": "https://www.iccgfl.org/",
    "email_primary": "socialcoordinator@iccgfl.org",
    "contact_person": "",
    "contact_person_role": "",
    "latitude": "",
    "longitude": ""
  },
  {
    "name": "Islamic Jaffaria Association",
    "address": "10554 Nw 132Nd St",
    "city": "Hialeah Gardens",
    "state": "Florida",
    "zip_code": 33018,
    "country": "United States",
    "phone": "305-557-6835",
    "Website": "https://www.ijamiami.org/",
    "email_primary": "events@ijamiami.org taqi@ijamiami.org",
    "contact_person": "",
    "contact_person_role": "",
    "latitude": "",
    "longitude": ""
  },
  {
    "name": "Islamic Movement of Florida",
    "address": "3201 Nw 74th Ave",
    "city": "Hollywood",
    "state": "Florida",
    "zip_code": 33024,
    "country": "United States",
    "phone": "954-894-9110",
    "Website": "https://www.imof.org/",
    "email_primary": "info@IMOF.org",
    "contact_person": "",
    "contact_person_role": "",
    "latitude": "",
    "longitude": ""
  },
  {
    "name": "Jamaat Ul Muttaqeen",
    "address": "1010 SW 196th Ave",
    "city": "Pembroke Pines",
    "state": "Florida",
    "zip_code": "",
    "country": "United States",
    "phone": "954-447-1789",
    "Website": "https://mjum.org/",
    "email_primary": "mjum1010@gmail.com",
    "contact_person": "",
    "contact_person_role": "",
    "latitude": "",
    "longitude": ""
  },
  {
    "name": "Masjid Ul Munineen",
    "address": "12850 Sw 268 St.",
    "city": "Homestead",
    "state": "Florida",
    "zip_code": 33032,
    "country": "United States",
    "phone": "305-246-5814",
    "Website": "https://www.masjidulmumineen.org/",
    "email_primary": "homesteadmasjid@yahoo.com",
    "contact_person": "",
    "contact_person_role": "",
    "latitude": "",
    "longitude": ""
  },
  {
    "name": "Masjid Al-Ansar",
    "address": "9801 Old Baymeadows Rd Bldg 2 Apt 17",
    "city": "Jacksonville",
    "state": "Florida",
    "zip_code": 32256,
    "country": "United States",
    "phone": "904-997-9487",
    "Website": "https://alansarmosque.sg/",
    "email_primary": "mail@alansar.mosque.sg",
    "contact_person": "",
    "contact_person_role": "",
    "latitude": "",
    "longitude": ""
  },
  {
    "name": "Masjid Al-Salaam",
    "address": "1625 N Pearl St",
    "city": "Jacksonville",
    "state": "Florida",
    "zip_code": 32206,
    "country": "United States",
    "phone": "904-646-3462",
    "Website": "https://www.bcmaburnaby.org/",
    "email_primary": "burnaby@thebcma.com",
    "contact_person": "",
    "contact_person_role": "",
    "latitude": "",
    "longitude": ""
  },
  {
    "name": "Islamic Center of Ne Florida",
    "address": "2333 St Johns Bluff Rd",
    "city": "Jacksonville",
    "state": "Florida",
    "zip_code": 32211,
    "country": "United States",
    "phone": "904-646-0980",
    "Website": "https://icnef.org/",
    "email_primary": "info@icnef.org",
    "contact_person": "",
    "contact_person_role": "",
    "latitude": "",
    "longitude": ""
  },
  {
    "name": "Masjid Al Noor",
    "address": "3496 Polynesian Isle Blvd",
    "city": "Kissimmee",
    "state": "Florida",
    "zip_code": 34746,
    "country": "United States",
    "phone": "407-879-0807",
    "Website": "https://www.masjid-alnoor.org/",
    "email_primary": "info@masjid-alnoor.org",
    "contact_person": "",
    "contact_person_role": "",
    "latitude": "",
    "longitude": ""
  },
  {
    "name": "Masjid Taqwa | Islamic Center of Osceola County",
    "address": "2417 N. Central Ave",
    "city": "Kissimmee",
    "state": "Florida",
    "zip_code": 34741,
    "country": "United States",
    "phone": "407-944-4353",
    "Website": "https://masjidtaqwa.org/",
    "email_primary": "info@masjidtaqwa.org",
    "contact_person": "",
    "contact_person_role": "",
    "latitude": "",
    "longitude": ""
  },
  {
    "name": "Masjid Assunah",
    "address": "1535 Pleasant Hill Rd",
    "city": "Kissimmee",
    "state": "Florida",
    "zip_code": 34741,
    "country": "United States",
    "phone": "407-935-0337",
    "Website": "https://masjidassunnah-fl.com/",
    "email_primary": "",
    "contact_person": "",
    "contact_person_role": "",
    "latitude": "",
    "longitude": ""
  },
  {
    "name": "Masjid Al-Bir | Al-Bir Islamic Association",
    "address": "4870 Old Tampa Hwy",
    "city": "Kissimmee",
    "state": "Florida",
    "zip_code": 34758,
    "country": "United States",
    "phone": "407-879-0807",
    "Website": "https://www.albirr.com/",
    "email_primary": "info@albirr.com",
    "contact_person": "",
    "contact_person_role": "",
    "latitude": "",
    "longitude": ""
  },
  {
    "name": "Masjid Darul Uloom | Islamic Center of Kissimmee",
    "address": "2350 Old Vineland Rd",
    "city": "Kissimmee",
    "state": "Florida",
    "zip_code": 34746,
    "country": "United States",
    "phone": "407-390-1100",
    "Website": "https://darululoomflorida.org/",
    "email_primary": "imam@darululoomflorida.org",
    "contact_person": "",
    "contact_person_role": "",
    "latitude": "",
    "longitude": ""
  },
  {
    "name": "Leesburg Islamic Center",
    "address": "2201 Montclair St",
    "city": "Leesburg",
    "state": "Florida",
    "zip_code": 34748,
    "country": "United States",
    "phone": "352-255-4708",
    "Website": "https://loudounislamiccenter.org/",
    "email_primary": "info@loudoumislamiccenter.org",
    "contact_person": "",
    "contact_person_role": "",
    "latitude": "",
    "longitude": ""
  },
  {
    "name": "Islamic Society of Brevard County",
    "address": "550 East Florida Ave",
    "city": "Melbourne",
    "state": "Florida",
    "zip_code": 32901,
    "country": "United States",
    "phone": "321-984-4129",
    "Website": "https://www.isbcmelbourne.org/",
    "email_primary": "info@isbcmelbourne.org",
    "contact_person": "",
    "contact_person_role": "",
    "latitude": "",
    "longitude": ""
  },
  {
    "name": "Masjid Al-Ansar",
    "address": "5245 Nw 7th Ave",
    "city": "Miami",
    "state": "Florida",
    "zip_code": 33127,
    "country": "United States",
    "phone": "305-757-8741",
    "Website": "https://alansarmosque.sg/",
    "email_primary": "mail@alansar.mosque.sg",
    "contact_person": "",
    "contact_person_role": "",
    "latitude": "",
    "longitude": ""
  },
  {
    "name": "Nigerian Islamic Society",
    "address": "2410 Nw 93Rd St",
    "city": "Miami",
    "state": "Florida",
    "zip_code": 33147,
    "country": "United States",
    "phone": "773-665-2451",
    "Website": "https://www.nigeriaislamicassociation.org/",
    "email_primary": "niaexecutiveboard@gmail.com",
    "contact_person": "",
    "contact_person_role": "",
    "latitude": "",
    "longitude": ""
  },
  {
    "name": "American Muslim Association of North America",
    "address": "183 Ne 166th St",
    "city": "Miami",
    "state": "Florida",
    "zip_code": 33162,
    "country": "United States",
    "phone": "305-945-0414",
    "Website": "https://www.imana.org/",
    "email_primary": "hq@imana.org education@imana.org",
    "contact_person": "",
    "contact_person_role": "",
    "latitude": "",
    "longitude": ""
  },
  {
    "name": "Masjid An-Noor | The Islamic Center of Miami",
    "address": "11699 Sw 147th Ave",
    "city": "Miami",
    "state": "Florida",
    "zip_code": 33196,
    "country": "United States",
    "phone": "305-408-0400",
    "Website": "https://islamicschoolofmiami.org/",
    "email_primary": "secretary@islamicschoolofmiami.org",
    "contact_person": "",
    "contact_person_role": "",
    "latitude": "",
    "longitude": ""
  },
  {
    "name": "Masjid Miami | Muslim Communitites Association of South Florida",
    "address": "7350 Nw 3Rd St",
    "city": "Miami",
    "state": "Florida",
    "zip_code": 33126,
    "country": "United States",
    "phone": "305-261-7622",
    "Website": "https://www.miamimuslim.org/",
    "email_primary": "info@miamimuslim.org",
    "contact_person": "",
    "contact_person_role": "",
    "latitude": "",
    "longitude": ""
  },
  {
    "name": "Masjid Al-Hijrah | Caribben-American Islamic Association",
    "address": "6128 Sw 27th St",
    "city": "Miami",
    "state": "Florida",
    "zip_code": 33023,
    "country": "United States",
    "phone": "121-766-5454",
    "Website": "https://alhijrahtrust.org/",
    "email_primary": "admin@alhijrahtrust.org",
    "contact_person": "",
    "contact_person_role": "",
    "latitude": "",
    "longitude": ""
  },
  {
    "name": "Islamic Center of Naples",
    "address": "2520 Davel Blvd 2Nd. Fl Unit E",
    "city": "Naples",
    "state": "Florida",
    "zip_code": 34104,
    "country": "United States",
    "phone": "239-732-7136",
    "Website": "https://icnaples.org/",
    "email_primary": "islamic.center.naples@gmail.com",
    "contact_person": "Br. Mohammed Usman",
    "contact_person_role": "President",
    "latitude": "",
    "longitude": ""
  },
  {
    "name": "Islamic Center of New Port Richey",
    "address": "4715 Grand Blvd",
    "city": "New Port Richey",
    "state": "Florida",
    "zip_code": 34652,
    "country": "United States",
    "phone": "727-834-9200",
    "Website": "https://www.icnpr.org/",
    "email_primary": "askimamicnpr@gmail.com",
    "contact_person": "",
    "contact_person_role": "",
    "latitude": "",
    "longitude": ""
  },
  {
    "name": "Islamic Center of Ocala",
    "address": "1410 NE 14th St",
    "city": "Ocala",
    "state": "Florida",
    "zip_code": 34482,
    "country": "United States",
    "phone": "352-671-7817",
    "Website": "https://islamiccenterofocala.org/",
    "email_primary": "icoo.contact@gmail.com",
    "contact_person": "",
    "contact_person_role": "",
    "latitude": "",
    "longitude": ""
  },
  {
    "name": "Islamic Center of Orange Park",
    "address": "116 Foxridge",
    "city": "Orange Park",
    "state": "Florida",
    "zip_code": 32055,
    "country": "United States",
    "phone": "904-330-4847",
    "Website": "https://icopfl.org/",
    "email_primary": "icopfl786@gmail.com",
    "contact_person": "Asad Haque",
    "contact_person_role": "Vice President",
    "latitude": "",
    "longitude": ""
  },
  {
    "name": "Masjid Al-Quddus | Islamic Society of Central Florida",
    "address": "312 S. Paramore Ave",
    "city": "Orlando",
    "state": "Florida",
    "zip_code": 32807,
    "country": "United States",
    "phone": "407-273-8363",
    "Website": "https://iscf.org/masjid/masijid-al-quddus/",
    "email_primary": "imamkhan@iscf.org",
    "contact_person": "",
    "contact_person_role": "",
    "latitude": "",
    "longitude": ""
  },
  {
    "name": "Jama Masjid | Islamic Center of Orlando",
    "address": "11543 Ruby Lake Rd",
    "city": "Orlando",
    "state": "Florida",
    "zip_code": 32836,
    "country": "United States",
    "phone": "407-238-2700",
    "Website": "https://www.icorlando.org/",
    "email_primary": "info@icorlando.org",
    "contact_person": "",
    "contact_person_role": "",
    "latitude": "",
    "longitude": ""
  },
  {
    "name": "Masjid Al-Rahim | Islamic Society of Central Florida",
    "address": "4962 Old Winter Garden",
    "city": "Orlando",
    "state": "Florida",
    "zip_code": 32811,
    "country": "United States",
    "phone": "407-523-7882",
    "Website": "https://iscf.org/",
    "email_primary": "icopfl786@gmail.com",
    "contact_person": "Asad Haque",
    "contact_person_role": "Vice President",
    "latitude": "",
    "longitude": ""
  },
  {
    "name": "Masjid Malik | Islamic Society of central Florida",
    "address": "2018 Rouse Rd",
    "city": "Orlando",
    "state": "Florida",
    "zip_code": 32817,
    "country": "United States",
    "phone": "407-277-0133",
    "Website": "https://iscf.org/",
    "email_primary": "icopfl786@gmail.com",
    "contact_person": "Asad Haque",
    "contact_person_role": "Vice President",
    "latitude": "",
    "longitude": ""
  },
  {
    "name": "Masjid Al-Rahman | Islamic Society of central Florida",
    "address": "1089 N. Goldenrod Road",
    "city": "Orlando",
    "state": "Florida",
    "zip_code": 32807,
    "country": "United States",
    "phone": "407-273-7750",
    "Website": "https://iscf.org/",
    "email_primary": "icopfl786@gmail.com mail@iscf.org",
    "contact_person": "Asad Haque",
    "contact_person_role": "Vice President",
    "latitude": "",
    "longitude": ""
  },
  {
    "name": "Masjid Al-Haq | Islamic Society of central Florida",
    "address": "545 W. Central Blvd",
    "city": "Orlando",
    "state": "Florida",
    "zip_code": 32801,
    "country": "United States",
    "phone": "407-835-9600",
    "Website": "https://iscf.org/",
    "email_primary": "icopfl786@gmail.com mail@iscf.org",
    "contact_person": "Asad Haque",
    "contact_person_role": "Vice President",
    "latitude": "",
    "longitude": ""
  },
  {
    "name": "Masjid Al-Aziz | Islamic Society of central Florida",
    "address": "9501 Satellite Blvd Suite 110",
    "city": "Orlando",
    "state": "Florida",
    "zip_code": 32837,
    "country": "United States",
    "phone": "",
    "Website": "https://iscf.org/",
    "email_primary": "icopfl786@gmail.com mail@iscf.org",
    "contact_person": "Asad Haque",
    "contact_person_role": "Vice President",
    "latitude": "",
    "longitude": ""
  },
  {
    "name": "Bay County Islamic Society",
    "address": "3312 Token Rd",
    "city": "Panama City",
    "state": "Florida",
    "zip_code": 32405,
    "country": "United States",
    "phone": "850-785-8085",
    "Website": "https://baycountyislamicsociety.net/",
    "email_primary": "info@baycountyislamicsociety.net imamamr@gmail.com",
    "contact_person": "",
    "contact_person_role": "",
    "latitude": "",
    "longitude": ""
  },
  {
    "name": "Islamic Center of Pinellass Park",
    "address": "7400 62Nd Terrance North",
    "city": "Pinellas Park",
    "state": "Florida",
    "zip_code": 33781,
    "country": "United States",
    "phone": "727-520-6615",
    "Website": "https://ispc-fl.org/",
    "email_primary": "info@ispc-fl.org",
    "contact_person": "",
    "contact_person_role": "",
    "latitude": "",
    "longitude": ""
  },
  {
    "name": "Islamic Community of Sw Florida",
    "address": "25148 Harborview Rd",
    "city": "Port Charlotte",
    "state": "Florida",
    "zip_code": 33980,
    "country": "United States",
    "phone": "941-625-8855",
    "Website": "http://www.islamicswfl.com/site/",
    "email_primary": "azharsudedar@gmail.com",
    "contact_person": "",
    "contact_person_role": "",
    "latitude": "",
    "longitude": ""
  },
  {
    "name": "Masjid Al-Salam | Islamic Society of Cental Florida",
    "address": "2917 S. Orlando Dr",
    "city": "Sanford",
    "state": "Florida",
    "zip_code": 32773,
    "country": "United States",
    "phone": "",
    "Website": "https://iscf.org/masjid/masjid-al-salaam/",
    "email_primary": "icopfl786@gmail.com mail@iscf.org",
    "contact_person": "Asad Haque",
    "contact_person_role": "Vice President",
    "latitude": "",
    "longitude": ""
  },
  {
    "name": "Islamic Society of Sarasota & Bradenton",
    "address": "4350 N. Lockwood Ridge Rd",
    "city": "Sarasota",
    "state": "Florida",
    "zip_code": 34234,
    "country": "United States",
    "phone": "941-351-3393",
    "Website": "https://issb.net/",
    "email_primary": "info@issb.net",
    "contact_person": "",
    "contact_person_role": "",
    "latitude": "",
    "longitude": ""
  },
  {
    "name": "Masjid Al-Jaber | Islamic Society of Central Florida",
    "address": "5186 Shumacher Rd.",
    "city": "Sebring",
    "state": "Florida",
    "zip_code": 33872,
    "country": "United States",
    "phone": "386-860-9663",
    "Website": "https://iscf.org/masjid/masjid-al-jabbar/",
    "email_primary": "icopfl786@gmail.com mail@iscf.org",
    "contact_person": "Asad Haque",
    "contact_person_role": "Vice President",
    "latitude": "",
    "longitude": ""
  },
  {
    "name": "Masjid Al-Muminin",
    "address": "2401 6th St. S",
    "city": "St. Petersburg",
    "state": "Florida",
    "zip_code": 33705,
    "country": "United States",
    "phone": "727-288-3636",
    "Website": "",
    "email_primary": "admin@isspmosque.com",
    "contact_person": "",
    "contact_person_role": "",
    "latitude": "",
    "longitude": ""
  },
  {
    "name": "Islamic Foundation of South Florida",
    "address": "5457 Nw 108th Ave",
    "city": "Sunrise",
    "state": "Florida",
    "zip_code": 33351,
    "country": "United States",
    "phone": "954-741-8130",
    "Website": "https://ifsf.net/",
    "email_primary": "info@ifsf.net",
    "contact_person": "",
    "contact_person_role": "",
    "latitude": "",
    "longitude": ""
  },
  {
    "name": "Islamic Center of Tallahassee",
    "address": "1020 W pensacola St",
    "city": "Tallahassee",
    "state": "Florida",
    "zip_code": 32304,
    "country": "United States",
    "phone": "850-681-9022",
    "Website": "https://ictallahassee.org/",
    "email_primary": "tallahassee.islamic.center@gmail.com",
    "contact_person": "",
    "contact_person_role": "",
    "latitude": "",
    "longitude": ""
  },
  {
    "name": "Masjid Al-Furqan | Islamic Community of Tallahassee",
    "address": "3617 Old Bainbridge Rd",
    "city": "Tallahassee",
    "state": "Florida",
    "zip_code": 32303,
    "country": "United States",
    "phone": "850-514-0100",
    "Website": "https://ictallahassee.org/",
    "email_primary": "tallahassee.islamic.center@gmail.com",
    "contact_person": "",
    "contact_person_role": "",
    "latitude": "",
    "longitude": ""
  },
  {
    "name": "Masjid Al-Qassam | Islamic Community of Tampa",
    "address": "5910 E. 130th Ave",
    "city": "Tampa",
    "state": "Florida",
    "zip_code": 33617,
    "country": "United States",
    "phone": "813-985-9433",
    "Website": "https://ictampa.org/",
    "email_primary": "hatemfariz5262010@yahoo.com ict@ictampa.com",
    "contact_person": "Sh. Ahmed Sharaf",
    "contact_person_role": "Imam",
    "latitude": "",
    "longitude": ""
  },
  {
    "name": "Mas Youth Center | Muslim American Society",
    "address": "12226 N. 56th St",
    "city": "Tampa",
    "state": "Florida",
    "zip_code": 33617,
    "country": "United States",
    "phone": "813-899-2267",
    "Website": "https://www.masyc.org/",
    "email_primary": "myc.operations@masnewyork.org",
    "contact_person": "",
    "contact_person_role": "",
    "latitude": "",
    "longitude": ""
  },
  {
    "name": "Islamic Society of Tampa Bay Area",
    "address": "7326 E. Sligh Ave",
    "city": "Tampa",
    "state": "Florida",
    "zip_code": 33610,
    "country": "United States",
    "phone": "813-628-0007",
    "Website": "https://www.istaba.org/",
    "email_primary": "mainoffice@istaba.org",
    "contact_person": "Sr. Mariam Razak",
    "contact_person_role": "Hifz Academy",
    "latitude": "",
    "longitude": ""
  },
  {
    "name": "Dar-Us Salaam | Islamic Society of New Tampa",
    "address": "15830 Morris Bridge Rd",
    "city": "Thonotosassa",
    "state": "Florida",
    "zip_code": 33592,
    "country": "United States",
    "phone": "",
    "Website": "https://www.newtampamasjid.org/",
    "email_primary": "info@newtampamasjid.org",
    "contact_person": "",
    "contact_person_role": "",
    "latitude": "",
    "longitude": ""
  },
  {
    "name": "Masjid Al-Mumin | Islamic Society of Central Florida",
    "address": "1011 S Washington (Us 1)",
    "city": "Titusville",
    "state": "Florida",
    "zip_code": 32780,
    "country": "United States",
    "phone": "321-268-1833",
    "Website": "https://iscf.org/masjid/masjid-al-jabbar/",
    "email_primary": "icopfl786@gmail.com mail@iscf.org",
    "contact_person": "Asad Haque",
    "contact_person_role": "Vice President",
    "latitude": "",
    "longitude": ""
  },
  {
    "name": "Muslim Association of Hawaii",
    "address": "1935 Aleo Place",
    "city": "Honolulu",
    "state": "Hawaii",
    "zip_code": 96822,
    "country": "United States",
    "phone": "808-947-6263",
    "Website": "https://www.hawaiimasjid.com",
    "email_primary": "contact@hawaiimasjid.com",
    "contact_person": "",
    "contact_person_role": "",
    "latitude": "",
    "longitude": ""
  },
  {
    "name": "Islamic Center of Boise",
    "address": "2719 Stewart Ave",
    "city": "Boise",
    "state": "Idaho",
    "zip_code": 83702,
    "country": "United States",
    "phone": "208-429-1866",
    "Website": "https://boisemuslims.org/",
    "email_primary": "boisemuslims@yahoo.com",
    "contact_person": "",
    "contact_person_role": "",
    "latitude": "",
    "longitude": ""
  },
  {
    "name": "American Muslim Community Organization",
    "address": "1548 E Algonquin Rd",
    "city": "Algonquin",
    "state": "Illinois",
    "zip_code": 60102,
    "country": "United States",
    "phone": "847-604-4818",
    "Website": "https://www.amco.org/",
    "email_primary": "info@McHenryMuslims.org",
    "contact_person": "",
    "contact_person_role": "",
    "latitude": "",
    "longitude": ""
  },
  {
    "name": "Fox Vally Muslim Community Center",
    "address": "1187 Timberlake Dr",
    "city": "Aurora",
    "state": "Illinois",
    "zip_code": 60506,
    "country": "United States",
    "phone": "630-810-7729",
    "Website": "http://www.auroramasjid.org/",
    "email_primary": "auroramasjid@gmail.com",
    "contact_person": "",
    "contact_person_role": "",
    "latitude": "",
    "longitude": ""
  },
  {
    "name": "Al-Azhar Islamic Foundation",
    "address": "160 Hawthorne Road",
    "city": "Barrington",
    "state": "Illinois",
    "zip_code": 60010,
    "country": "United States",
    "phone": "847-277-9910",
    "Website": "https://www.aifcenter.org/",
    "email_primary": "best_box69@hotmail.com secretary@azharamerica.org",
    "contact_person": "",
    "contact_person_role": "",
    "latitude": "",
    "longitude": ""
  },
  {
    "name": "Belleville Mosque & Islamic Education Center",
    "address": "4525 Old Collinsville Rd",
    "city": "Belleville",
    "state": "Illinois",
    "zip_code": 622226,
    "country": "United States",
    "phone": "618-222-9055",
    "Website": "",
    "email_primary": "bellevile@stislam.org",
    "contact_person": "",
    "contact_person_role": "",
    "latitude": "",
    "longitude": ""
  },
  {
    "name": "Masjid Ibrahim",
    "address": "2407 E Washington St.",
    "city": "Bloomington",
    "state": "Illinois",
    "zip_code": 61704,
    "country": "United States",
    "phone": "309-663-2828",
    "Website": "https://icmclean.org/",
    "email_primary": "imam@icmclean.org",
    "contact_person": "",
    "contact_person_role": "",
    "latitude": "",
    "longitude": ""
  },
  {
    "name": "Islamic Center of Bloomington-Normal",
    "address": "2911 Gill St. Suite 6",
    "city": "Bloomington",
    "state": "Illinois",
    "zip_code": 61704,
    "country": "United States",
    "phone": "309-664-0304",
    "Website": "https://www.icob.org/",
    "email_primary": "imam.icob@gmail.com",
    "contact_person": "",
    "contact_person_role": "",
    "latitude": "",
    "longitude": ""
  },
  {
    "name": "Masjid Al-Islam | Muslim Association of Boilingbrook",
    "address": "56 E. North Frontage",
    "city": "Bolingbrook",
    "state": "Illinois",
    "zip_code": 60440,
    "country": "United States",
    "phone": "630-972-0701",
    "Website": "https://bolingbrookmasjid.com/",
    "email_primary": "info@bolingbrookmasjid.com",
    "contact_person": "",
    "contact_person_role": "",
    "latitude": "",
    "longitude": ""
  },
  {
    "name": "Mosque Foundation of Chicago",
    "address": "7360 W. 93Rd St",
    "city": "Bridgeview",
    "state": "Illinois",
    "zip_code": 60455,
    "country": "United States",
    "phone": "708-430-5666",
    "Website": "https://mosquefoundation.org/",
    "email_primary": "info@mosquefoundation.org",
    "contact_person": "",
    "contact_person_role": "",
    "latitude": "",
    "longitude": ""
  },
  {
    "name": "Masjid An-Nur | Carbondale Muslim Center",
    "address": "504 S. Wall",
    "city": "Carbondale",
    "state": "Illinois",
    "zip_code": 62901,
    "country": "United States",
    "phone": "618-533-6522",
    "Website": "https://carbondalemuslimcenter.com/",
    "email_primary": "carbondalemosque@gmail.com",
    "contact_person": "",
    "contact_person_role": "",
    "latitude": "",
    "longitude": ""
  },
  {
    "name": "Muslim Community Center",
    "address": "4380 N Elston Ave",
    "city": "Chicago",
    "state": "Illinois",
    "zip_code": 60641,
    "country": "United States",
    "phone": "773-777-7443",
    "Website": "https://mccchicago.org/",
    "email_primary": "Counseling@mcchicago.org",
    "contact_person": "",
    "contact_person_role": "",
    "latitude": "",
    "longitude": ""
  },
  {
    "name": "Chicago Islamic Center - CIC",
    "address": "3357 W 63rd St.",
    "city": "Chicago",
    "state": "Illinois",
    "zip_code": 60629,
    "country": "United States",
    "phone": "773-436-8083",
    "Website": "",
    "email_primary": "chicagomasque@yahoo.com",
    "contact_person": "",
    "contact_person_role": "",
    "latitude": "",
    "longitude": ""
  },
  {
    "name": "Faizan e Madinah Chicago",
    "address": "6305 N. Ridge Blvd",
    "city": "Chicago",
    "state": "Illinois",
    "zip_code": 60626,
    "country": "United States",
    "phone": "773-465-7875",
    "Website": "https://www.dawateislamiusa.com/",
    "email_primary": "dawateislamichicagousa@gmail.com",
    "contact_person": "",
    "contact_person_role": "",
    "latitude": "",
    "longitude": ""
  },
  {
    "name": "Islamic Center of Chicago | At-Takaful Islamic Society",
    "address": "5933 N. Lincoln Ave",
    "city": "Chicago",
    "state": "Illinois",
    "zip_code": 60659,
    "country": "United States",
    "phone": "773-989-9330",
    "Website": "https://www.icconline.org/",
    "email_primary": "info@icconline.org",
    "contact_person": "",
    "contact_person_role": "",
    "latitude": "",
    "longitude": ""
  },
  {
    "name": "The Ephraim Bahar Cultural Center",
    "address": "2525 W. 71St St.",
    "city": "Chicago",
    "state": "Illinois",
    "zip_code": 60629,
    "country": "United States",
    "phone": "773-476-8825",
    "Website": "https://ebaharcenter.com/",
    "email_primary": "baharinfo2525@gmail.com",
    "contact_person": "",
    "contact_person_role": "",
    "latitude": "",
    "longitude": ""
  },
  {
    "name": "Islamic Community Center of Illinois",
    "address": "6435 W. Belmont Ave",
    "city": "Chicago",
    "state": "Illinois",
    "zip_code": 60634,
    "country": "United States",
    "phone": "773-637-3755",
    "Website": "https://iccicenter.org/",
    "email_primary": "contact@iccicenter.org",
    "contact_person": "",
    "contact_person_role": "",
    "latitude": "",
    "longitude": ""
  },
  {
    "name": "Al-Farooq Mosque",
    "address": "8950 S Stony Island",
    "city": "Chicago",
    "state": "Illinois",
    "zip_code": 60649,
    "country": "United States",
    "phone": "773-752-2015",
    "Website": "https://www.mafchicago.com/",
    "email_primary": "masjid.alfarooq@yahoo.com",
    "contact_person": "",
    "contact_person_role": "",
    "latitude": "",
    "longitude": ""
  },
  {
    "name": "Masjid-E-Sayed Hashim | Mahdavia Islamic Center of Chicago",
    "address": "7419 N Western Ave",
    "city": "Chicago",
    "state": "Illinois",
    "zip_code": 60645,
    "country": "United States",
    "phone": "773-262-6680",
    "Website": "https://www.miccusa.org/",
    "email_primary": "mahdaviacenter@gmail.com",
    "contact_person": "",
    "contact_person_role": "",
    "latitude": "",
    "longitude": ""
  },
  {
    "name": "Masjid Al-Muhajireen",
    "address": "3777 W. Columbus Ave",
    "city": "Chicago",
    "state": "Illinois",
    "zip_code": 60652,
    "country": "United States",
    "phone": "773-581-1083",
    "Website": "https://www.masjidmuhajireen.org/",
    "email_primary": "info@masjidmuhajireen.org",
    "contact_person": "",
    "contact_person_role": "",
    "latitude": "",
    "longitude": ""
  },
  {
    "name": "Islamic Society of Midwest",
    "address": "501 Midway Dr",
    "city": "Mt Prospect",
    "state": "Illinois",
    "zip_code": 60056,
    "country": "United States",
    "phone": "201-238-6203",
    "Website": "https://www.islamicsom.org/",
    "email_primary": "info@islamicsom.org",
    "contact_person": "",
    "contact_person_role": "",
    "latitude": "",
    "longitude": ""
  },
  {
    "name": "Masom | Midwest Association of Shia Organized Muslims",
    "address": "4353 West Lawrence Ave",
    "city": "Chicago",
    "state": "Illinois",
    "zip_code": 60630,
    "country": "United States",
    "phone": "847-507-2171",
    "Website": "https://masom.com/",
    "email_primary": "secretary@masom.com",
    "contact_person": "",
    "contact_person_role": "",
    "latitude": "",
    "longitude": ""
  },
  {
    "name": "Masjid At-Tawheed Chicago",
    "address": "8726 S. Halsted St.",
    "city": "Chicago",
    "state": "Illinois",
    "zip_code": 60620,
    "country": "United States",
    "phone": "773-487-9368",
    "Website": "https://www.masjidattawheedchicag.org/",
    "email_primary": "tawheedislamicenter@gmail.com",
    "contact_person": "",
    "contact_person_role": "",
    "latitude": "",
    "longitude": ""
  },
  {
    "name": "Masjid Abbu Bakar Siddiq R. A",
    "address": "1017 W Roscoe St",
    "city": "Chicago",
    "state": "Illinois",
    "zip_code": 60657,
    "country": "United States",
    "phone": "312-281-9551",
    "Website": "",
    "email_primary": "",
    "contact_person": "",
    "contact_person_role": "",
    "latitude": "",
    "longitude": ""
  },
  {
    "name": "Dar Al Taqwa",
    "address": "10740 Route 108",
    "city": "Ellicott City",
    "state": "Maryland",
    "zip_code": 21042,
    "country": "United States",
    "phone": "410-997-5711",
    "Website": "https://taqwa.net/",
    "email_primary": "info@taqwa.net",
    "contact_person": "",
    "contact_person_role": "",
    "latitude": "",
    "longitude": ""
  },
  {
    "name": "Makki Masjid",
    "address": "3418 W. Ainsile St",
    "city": "Chicago",
    "state": "Illinois",
    "zip_code": 60625,
    "country": "United States",
    "phone": "773-588-8865",
    "Website": "https://makkimasjid.com/",
    "email_primary": "info@makkimasjid.com",
    "contact_person": "",
    "contact_person_role": "",
    "latitude": "",
    "longitude": ""
  },
  {
    "name": "Downtown Islamic Center",
    "address": "231 S State St 4th Fl",
    "city": "Chicago",
    "state": "Illinois",
    "zip_code": 60604,
    "country": "United States",
    "phone": "312-939-9095",
    "Website": "https://www.dtislamiccenter.org/",
    "email_primary": "info@dic-chicago.org dic231@gmail.com",
    "contact_person": "",
    "contact_person_role": "",
    "latitude": "",
    "longitude": ""
  },
  {
    "name": "Masjid e Ayesha Chicago",
    "address": "2409 B W Devon",
    "city": "Chicago",
    "state": "Illinois",
    "zip_code": 90959,
    "country": "United States",
    "phone": "773-691-8218",
    "Website": "https://www.turabi.org/home",
    "email_primary": "masjideayesha@turabi.org",
    "contact_person": "",
    "contact_person_role": "",
    "latitude": "",
    "longitude": ""
  },
  {
    "name": "Turkish American Cultural Alliance",
    "address": "3745 N Harlem Ave",
    "city": "Chicago",
    "state": "Illinois",
    "zip_code": 60634,
    "country": "United States",
    "phone": "509-695-1487",
    "Website": "https://www.tacaonline.org/",
    "email_primary": "taca@tacaonline.org",
    "contact_person": "",
    "contact_person_role": "",
    "latitude": "",
    "longitude": ""
  },
  {
    "name": "ICNA-Chicago",
    "address": "6224 N California Ave",
    "city": "Chicago",
    "state": "Illinois",
    "zip_code": 60659,
    "country": "United States",
    "phone": "866-497-9037",
    "Website": "https://www.icnachicago.org/",
    "email_primary": "",
    "contact_person": "",
    "contact_person_role": "",
    "latitude": "",
    "longitude": ""
  },
  {
    "name": "Nigerian Islamic Association",
    "address": "932 W Sheridian Rd",
    "city": "Chicago",
    "state": "Illinois",
    "zip_code": 60613,
    "country": "United States",
    "phone": "773-665-2451",
    "Website": "https://www.nigeriaislamicassociation.org/",
    "email_primary": "niaexecutiveboard@gmail.com",
    "contact_person": "",
    "contact_person_role": "",
    "latitude": "",
    "longitude": ""
  },
  {
    "name": "Islamic Center of Mchenry County",
    "address": "5800 E Crystal Lake",
    "city": "Crystal Lake",
    "state": "Illinois",
    "zip_code": 60014,
    "country": "United States",
    "phone": "815-893-6005",
    "Website": "https://icmc-us.org/",
    "email_primary": "admin@icmc-us.org",
    "contact_person": "",
    "contact_person_role": "",
    "latitude": "",
    "longitude": ""
  },
  {
    "name": "Masjid Wali Hasan | Islamic Center of Decatur",
    "address": "1635 Huston Dr",
    "city": "Decatur",
    "state": "Illinois",
    "zip_code": 62526,
    "country": "United States",
    "phone": "217-877-2863",
    "Website": "https://masjidwh.org/",
    "email_primary": "contact@masjidwalihasan.org",
    "contact_person": "",
    "contact_person_role": "",
    "latitude": "",
    "longitude": ""
  },
  {
    "name": "Islamic Community of Center of Des Plains",
    "address": "480 Potter Rd",
    "city": "Des Plains",
    "state": "Illinois",
    "zip_code": 60016,
    "country": "United States",
    "phone": "847-824-1100",
    "Website": "https://iccofdesplaines.org/",
    "email_primary": "admin@islamiccommunitycenter.com",
    "contact_person": "",
    "contact_person_role": "",
    "latitude": "",
    "longitude": ""
  },
  {
    "name": "Institute of Islamic Education | Masjid Al-Islam",
    "address": "1048 Bluff City Blvd",
    "city": "Elgin",
    "state": "Illinois",
    "zip_code": 60120,
    "country": "United States",
    "phone": "847-695-4685",
    "Website": "https://www.islamicedu.org/",
    "email_primary": "admissions@islamicedu.org lie.office@islamicedu.org",
    "contact_person": "",
    "contact_person_role": "",
    "latitude": "",
    "longitude": ""
  },
  {
    "name": "Islamic Community Center",
    "address": "345 Heine St",
    "city": "Elgin",
    "state": "Illinois",
    "zip_code": 60123,
    "country": "United States",
    "phone": "847-695-3338",
    "Website": "https://www.iccelgin.com/",
    "email_primary": "",
    "contact_person": "",
    "contact_person_role": "",
    "latitude": "",
    "longitude": ""
  },
  {
    "name": "Dar-Us-Sunnah Masjid and Comm Center",
    "address": "2045 Brown Ave",
    "city": "Evanston",
    "state": "Illinois",
    "zip_code": 60201,
    "country": "United States",
    "phone": "773-554-8254",
    "Website": "https://www.darussunnah.org/",
    "email_primary": "zahmed22@sbcglobal.net",
    "contact_person": "",
    "contact_person_role": "",
    "latitude": "",
    "longitude": ""
  },
  {
    "name": "Islamic Education Center | Husaini Association of Greater Chicago",
    "address": "1269 Goodrich Ave",
    "city": "Glendale Heights",
    "state": "Illinois",
    "zip_code": 60139,
    "country": "United States",
    "phone": "630-469-5533",
    "Website": "https://www.iechusaini.org/",
    "email_primary": "",
    "contact_person": "",
    "contact_person_role": "",
    "latitude": "",
    "longitude": ""
  },
  {
    "name": "Msulim Society",
    "address": "1785 Bloomingdale Rd",
    "city": "Glendale Heights",
    "state": "Illinois",
    "zip_code": 60139,
    "country": "United States",
    "phone": "630-653-7872",
    "Website": "https://www.muslimsocietyinc.org/",
    "email_primary": "",
    "contact_person": "",
    "contact_person_role": "",
    "latitude": "",
    "longitude": ""
  },
  {
    "name": "Albanian American Islamic Center",
    "address": "5825 W St Charles Rd",
    "city": "Hillsdale",
    "state": "Illinois",
    "zip_code": 60163,
    "country": "United States",
    "phone": "708-544-2609",
    "Website": "https://albanianamericanislamiccenter.com/",
    "email_primary": "abdulbaseer12@yahoo.com",
    "contact_person": "",
    "contact_person_role": "",
    "latitude": "",
    "longitude": ""
  },
  {
    "name": "Islamic Foundation North",
    "address": "1751 N. O Plaine Rd",
    "city": "Liberryville",
    "state": "Illinois",
    "zip_code": 60048,
    "country": "United States",
    "phone": "847-406-3730",
    "Website": "https://ifnonline.com/",
    "email_primary": "ifnmasjid@ifnonline.com",
    "contact_person": "",
    "contact_person_role": "",
    "latitude": "",
    "longitude": ""
  },
  {
    "name": "Al-Masjidul-Huq",
    "address": "1620 S Highland Ave",
    "city": "Lombard",
    "state": "Illinois",
    "zip_code": 60148,
    "country": "United States",
    "phone": "630-519-4336",
    "Website": "https://www.masjidhaqq.org/",
    "email_primary": "masjidhaqq@gmail.com",
    "contact_person": "",
    "contact_person_role": "",
    "latitude": "",
    "longitude": ""
  },
  {
    "name": "Masjid DarusSalam",
    "address": "21W525 North Ave",
    "city": "Lombard",
    "state": "Illinois",
    "zip_code": 60148,
    "country": "United States",
    "phone": "630-847-6492",
    "Website": "",
    "email_primary": "info@dsfnd.org",
    "contact_person": "",
    "contact_person_role": "",
    "latitude": "",
    "longitude": ""
  },
  {
    "name": "Islamic Center of Macomb",
    "address": "601 Wigwam Hollow",
    "city": "Macomb",
    "state": "Illinois",
    "zip_code": 61455,
    "country": "United States",
    "phone": "309-833-3875",
    "Website": "https://www.islammacomb.org/",
    "email_primary": "msa@wiu.edu",
    "contact_person": "",
    "contact_person_role": "",
    "latitude": "",
    "longitude": ""
  },
  {
    "name": "Masjid Al-Ihsan | Islamic Center of Quad Cities",
    "address": "6005 34th Ave",
    "city": "Moline",
    "state": "Illinois",
    "zip_code": 61265,
    "country": "United States",
    "phone": "309-792-1690",
    "Website": "https://icqconline.org/",
    "email_primary": "imamicqc@gmail.com emaanali98@gmail.com",
    "contact_person": "Br. Djima Bello",
    "contact_person_role": "Chairman",
    "latitude": "",
    "longitude": ""
  },
  {
    "name": "Muslim Education Center",
    "address": "8601 Menard Ave",
    "city": "Morton Grove",
    "state": "Illinois",
    "zip_code": 60053,
    "country": "United States",
    "phone": "847-470-8801",
    "Website": "https://mccchicago.org/",
    "email_primary": "",
    "contact_person": "",
    "contact_person_role": "",
    "latitude": "",
    "longitude": ""
  },
  {
    "name": "Islamic Center of Naperville-Al-Hilal",
    "address": "2844 W Ogden Ave",
    "city": "Naperville",
    "state": "Illinois",
    "zip_code": 60540,
    "country": "United States",
    "phone": "630-428-3733",
    "Website": "https://islamiccenterofnaperville.org/",
    "email_primary": "",
    "contact_person": "",
    "contact_person_role": "",
    "latitude": "",
    "longitude": ""
  },
  {
    "name": "Islamic Center of Naperville-Al-Hidayah",
    "address": "450 S Olson Dr",
    "city": "Naperville",
    "state": "Illinois",
    "zip_code": 60566,
    "country": "United States",
    "phone": "630-355-3733",
    "Website": "https://islamiccenterofnaperville.org/",
    "email_primary": "",
    "contact_person": "",
    "contact_person_role": "",
    "latitude": "",
    "longitude": ""
  },
  {
    "name": "Islamic Cultural Center of Greater Chicago",
    "address": "1810 N Pfingsten Rd",
    "city": "Northbrook",
    "state": "Illinois",
    "zip_code": 60062,
    "country": "United States",
    "phone": "847-272-0319",
    "Website": "https://islamiccenterofnaperville.org/",
    "email_primary": "",
    "contact_person": "",
    "contact_person_role": "",
    "latitude": "",
    "longitude": ""
  },
  {
    "name": "The Prayer Center of Orland Park",
    "address": "16530 104th Ave",
    "city": "Orland Park",
    "state": "Illinois",
    "zip_code": 60467,
    "country": "United States",
    "phone": "708-349-6592",
    "Website": "https://orlandparkprayercenter.org/",
    "email_primary": "info@op-pc.org",
    "contact_person": "",
    "contact_person_role": "",
    "latitude": "",
    "longitude": ""
  },
  {
    "name": "Islamic Center of Peoria",
    "address": "1716 N. North St",
    "city": "Peoria",
    "state": "Illinois",
    "zip_code": 61605,
    "country": "United States",
    "phone": "309-688-4605",
    "Website": "https://icpeoria.org/",
    "email_primary": "info@icpeoria.org",
    "contact_person": "",
    "contact_person_role": "",
    "latitude": "",
    "longitude": ""
  },
  {
    "name": "Islamic Foundation of Peoria",
    "address": "823 W Salaam Dr",
    "city": "Peoria",
    "state": "Illinois",
    "zip_code": 61615,
    "country": "United States",
    "phone": "309-691-8195",
    "Website": "https://ifpeoria.org/",
    "email_primary": "drazizrehman@yahoo.com imam@imammazhar.com",
    "contact_person": "",
    "contact_person_role": "",
    "latitude": "",
    "longitude": ""
  },
  {
    "name": "Al-Aqsa Community Center",
    "address": "17940 S Bronk Rd",
    "city": "Plainfield",
    "state": "Illinois",
    "zip_code": 50586,
    "country": "United States",
    "phone": "815-230-0786",
    "Website": "https://plainfieldmasjid.com/",
    "email_primary": "info@plainfieldmasjid.com",
    "contact_person": "",
    "contact_person_role": "",
    "latitude": "",
    "longitude": ""
  },
  {
    "name": "Islamic Information Center of America",
    "address": "830 E Old Willow Rd",
    "city": "Prospect Heights",
    "state": "Illinois",
    "zip_code": 60070,
    "country": "United States",
    "phone": "847-541-8141",
    "Website": "https://www.iica.org/",
    "email_primary": "info@iica.org",
    "contact_person": "",
    "contact_person_role": "",
    "latitude": "",
    "longitude": ""
  },
  {
    "name": "Muslim Community Center of Rockford",
    "address": "5921 Darlene Dr",
    "city": "Rockford",
    "state": "Illinois",
    "zip_code": 61109,
    "country": "United States",
    "phone": "815-397-3311",
    "Website": "https://magr.org/",
    "email_primary": "info@magr.org",
    "contact_person": "",
    "contact_person_role": "",
    "latitude": "",
    "longitude": ""
  },
  {
    "name": "Islamic Society of Northwest Suburbs",
    "address": "3890 Industrial Ave",
    "city": "Rolling Meadows",
    "state": "Illinois",
    "zip_code": 60008,
    "country": "United States",
    "phone": "847-253-6400",
    "Website": "https://www.isns.org/",
    "email_primary": "communications@isns.org",
    "contact_person": "",
    "contact_person_role": "",
    "latitude": "",
    "longitude": ""
  },
  {
    "name": "Masjid Al-Huda | Midwest Islamic Center",
    "address": "1081 W. Irving Park Rd",
    "city": "Schaumburg",
    "state": "Illinois",
    "zip_code": 60193,
    "country": "United States",
    "phone": "630-529-1786",
    "Website": "https://masjidalhuda.org/",
    "email_primary": "info.masjid@masjidalhuda.org",
    "contact_person": "",
    "contact_person_role": "",
    "latitude": "",
    "longitude": ""
  },
  {
    "name": "Islamic Society of Greater Springfield",
    "address": "3000 Stanton St",
    "city": "Springfield",
    "state": "Illinois",
    "zip_code": 62703,
    "country": "United States",
    "phone": "217-529-8970",
    "Website": "https://isogs.org/",
    "email_primary": "isogs@outlook.com",
    "contact_person": "",
    "contact_person_role": "",
    "latitude": "",
    "longitude": ""
  },
  {
    "name": "Bait Ul Ilm Islamic Center",
    "address": "485 S Bartlett Rd",
    "city": "Streamwood",
    "state": "Illinois",
    "zip_code": 60107,
    "country": "United States",
    "phone": "630-669-6343",
    "Website": "https://www.baitulilm.org/",
    "email_primary": "mfaezi@baitulilm.org",
    "contact_person": "",
    "contact_person_role": "",
    "latitude": "",
    "longitude": ""
  },
  {
    "name": "Central Illinois Mosque & Islamic Center",
    "address": "106 S. Lincoln Ave",
    "city": "Urbana",
    "state": "Illinois",
    "zip_code": 61801,
    "country": "United States",
    "phone": "217-782-6562",
    "Website": "https://www.cimic.org/",
    "email_primary": "cimic@cimic.org",
    "contact_person": "",
    "contact_person_role": "",
    "latitude": "",
    "longitude": ""
  },
  {
    "name": "Islamic Foundation",
    "address": "300 W. Highridge",
    "city": "Villa Park",
    "state": "Illinois",
    "zip_code": 60181,
    "country": "United States",
    "phone": "630-782-6562",
    "Website": "https://www.islamicfoundation.org/",
    "email_primary": "hisham@islamicfoundation.org",
    "contact_person": "",
    "contact_person_role": "",
    "latitude": "",
    "longitude": ""
  },
  {
    "name": "Islamic Center of Western Suburbs",
    "address": "28W774 Army Trail Rd",
    "city": "West Chicago",
    "state": "Illinois",
    "zip_code": 60185,
    "country": "United States",
    "phone": "630-402-0805",
    "Website": "https://www.icwsmasjid.org/",
    "email_primary": "info@icwsmasjid.org",
    "contact_person": "",
    "contact_person_role": "",
    "latitude": "",
    "longitude": ""
  },
  {
    "name": "Muslim Education Cultural Center of America",
    "address": "720 E Plainfield Rd",
    "city": "Willowsbrook",
    "state": "Illinois",
    "zip_code": 60527,
    "country": "United States",
    "phone": "630-241-2000",
    "Website": "https://meccacenter.org/",
    "email_primary": "ilmeccacenter@gmail.com",
    "contact_person": "",
    "contact_person_role": "",
    "latitude": "",
    "longitude": ""
  },
  {
    "name": "Al Hira Community Center",
    "address": "140 Commercial St",
    "city": "Wood Dale",
    "state": "Illinois",
    "zip_code": 60191,
    "country": "United States",
    "phone": "630-350-7860",
    "Website": "http://www.alhiracommunitycenter.org/",
    "email_primary": "",
    "contact_person": "Mohammad Iqbal Chohan",
    "contact_person_role": "President",
    "latitude": "",
    "longitude": ""
  },
  {
    "name": "Islamic Center of Bloomington",
    "address": "1925 E Atwater",
    "city": "Bloomington",
    "state": "Indiana",
    "zip_code": 47401,
    "country": "United States",
    "phone": "812-333-1611",
    "Website": "https://www.icob.org/",
    "email_primary": "Contact@icob.org",
    "contact_person": "",
    "contact_person_role": "",
    "latitude": "",
    "longitude": ""
  },
  {
    "name": "Islamic Society of Columbus In",
    "address": "1531 13th St",
    "city": "Columbus",
    "state": "Indiana",
    "zip_code": 47201,
    "country": "United States",
    "phone": "269-779-7439",
    "Website": "https://www.iscindiana.org/",
    "email_primary": "contact@iscindiana.org",
    "contact_person": "",
    "contact_person_role": "",
    "latitude": "",
    "longitude": ""
  },
  {
    "name": "Northwest Indiana Islamic center",
    "address": "9803 Colorado st",
    "city": "Crown Point",
    "state": "Indiana",
    "zip_code": 46307,
    "country": "United States",
    "phone": "219-756-7622",
    "Website": "https://nwiic.org/",
    "email_primary": "info@nwiic.org",
    "contact_person": "",
    "contact_person_role": "",
    "latitude": "",
    "longitude": ""
  },
  {
    "name": "Al Huda Foundation",
    "address": "12201 Lantern Rd",
    "city": "Fishers",
    "state": "Indiana",
    "zip_code": 46038,
    "country": "United States",
    "phone": "317-570-9100",
    "Website": "https://alhudafoundation.org/",
    "email_primary": "info@alhudafoundation.org techsupport@alhudafoundation.org",
    "contact_person": "",
    "contact_person_role": "",
    "latitude": "",
    "longitude": ""
  },
  {
    "name": "Gary Muslim Center",
    "address": "1473 W 15th Ave",
    "city": "Gary",
    "state": "Indiana",
    "zip_code": 46407,
    "country": "United States",
    "phone": "219-885-3018",
    "Website": "http://garymuslimcenter.com/",
    "email_primary": "",
    "contact_person": "",
    "contact_person_role": "",
    "latitude": "",
    "longitude": ""
  },
  {
    "name": "Illiana Islamic Association",
    "address": "9606 Spring St",
    "city": "Highland",
    "state": "Indiana",
    "zip_code": 46322,
    "country": "United States",
    "phone": "219-924-2940",
    "Website": "https://www.highlandmasjid.org/",
    "email_primary": "info@highlandmasjid.org",
    "contact_person": "",
    "contact_person_role": "",
    "latitude": "",
    "longitude": ""
  },
  {
    "name": "Nur-Allah Islamic Center",
    "address": "2040 E 46th St",
    "city": "Indianapolis",
    "state": "Indiana",
    "zip_code": 46205,
    "country": "United States",
    "phone": "317-251-9796",
    "Website": "http://nurallah.org/",
    "email_primary": "nur-allah@att.net",
    "contact_person": "",
    "contact_person_role": "",
    "latitude": "",
    "longitude": ""
  },
  {
    "name": "Masjid Al-Fajr",
    "address": "2846 Cold Spring Rd",
    "city": "Indianapolis",
    "state": "Indiana",
    "zip_code": 46222,
    "country": "United States",
    "phone": "317-855-9934",
    "Website": "https://theimcaonline.org/",
    "email_primary": "info@theimcaonline.org",
    "contact_person": "",
    "contact_person_role": "",
    "latitude": "",
    "longitude": ""
  },
  {
    "name": "Masjid Al-Mumineen",
    "address": "4088 Millersville Rd",
    "city": "Indianapolis",
    "state": "Indiana",
    "zip_code": 46205,
    "country": "United States",
    "phone": "317-545-4252",
    "Website": "https://www.masjidmumineen.com/",
    "email_primary": "masjidalmumineenindy@gmail.com",
    "contact_person": "",
    "contact_person_role": "",
    "latitude": "",
    "longitude": ""
  },
  {
    "name": "Masjid An-Nur",
    "address": "5250 Lafayette Rd",
    "city": "Indianapolis",
    "state": "Indiana",
    "zip_code": 46254,
    "country": "United States",
    "phone": "317-328-7983",
    "Website": "https://masjidnoorindy.org/",
    "email_primary": "",
    "contact_person": "",
    "contact_person_role": "",
    "latitude": "",
    "longitude": ""
  },
  {
    "name": "Muslim Community Center, Indianapolis",
    "address": "4836 Mt Vernon Dr.",
    "city": "Indianapolis",
    "state": "Indiana",
    "zip_code": 46227,
    "country": "United States",
    "phone": "317-786-8911",
    "Website": "http://www.taqwacenter.com/",
    "email_primary": "mcci4u@gmail.com",
    "contact_person": "",
    "contact_person_role": "",
    "latitude": "",
    "longitude": ""
  },
  {
    "name": "Zainabia Center for Momin",
    "address": "4444 W. 56th St",
    "city": "Indianapolis",
    "state": "Indiana",
    "zip_code": 46254,
    "country": "United States",
    "phone": "",
    "Website": "https://www.zainabiacenter.org/",
    "email_primary": "12thimamfollower@gmail.com",
    "contact_person": "",
    "contact_person_role": "",
    "latitude": "",
    "longitude": ""
  },
  {
    "name": "Al Haqq FOundation",
    "address": "5554 Georgetown Rd",
    "city": "Indianapolis",
    "state": "Indiana",
    "zip_code": 46254,
    "country": "United States",
    "phone": "317-822-8161",
    "Website": "http://www.alhaqqfoundation.net/",
    "email_primary": "alhaqqfoundation@yahoo.com",
    "contact_person": "Muhammad Ndiaye",
    "contact_person_role": "Director",
    "latitude": "",
    "longitude": ""
  },
  {
    "name": "Kendallville Masjid | American Moslem Society Indiana",
    "address": "802 N Swyer Rd",
    "city": "Kendallville",
    "state": "Indiana",
    "zip_code": 46755,
    "country": "United States",
    "phone": "260-242-1433",
    "Website": "",
    "email_primary": "",
    "contact_person": "",
    "contact_person_role": "",
    "latitude": "",
    "longitude": ""
  },
  {
    "name": "Islamic Center of Michigan City",
    "address": "1606 N 500 E",
    "city": "Michigan City",
    "state": "Indiana",
    "zip_code": 46360,
    "country": "United States",
    "phone": "219-879-9667",
    "Website": "https://islamiccenterofmichigancity.org/",
    "email_primary": "syedshahicmc@tgmail.com",
    "contact_person": "",
    "contact_person_role": "",
    "latitude": "",
    "longitude": ""
  },
  {
    "name": "Islamic Center of Muncie",
    "address": "5141 W Hessler Rd",
    "city": "Muncie",
    "state": "Indiana",
    "zip_code": 47305,
    "country": "United States",
    "phone": "765-288-8014",
    "Website": "https://icmuncie.weebly.com/",
    "email_primary": "islamiccenterfmuncie@gmail.com",
    "contact_person": "",
    "contact_person_role": "",
    "latitude": "",
    "longitude": ""
  },
  {
    "name": "Islamic Center of Evansville",
    "address": "4200 Grimm Rd",
    "city": "Newburgh",
    "state": "Indiana",
    "zip_code": 47630,
    "country": "United States",
    "phone": "812-853-8806",
    "Website": "https://www.isevv.org/",
    "email_primary": "zbfarooqui@gmail.com sundayschoolevl@gmail.com",
    "contact_person": "",
    "contact_person_role": "",
    "latitude": "",
    "longitude": ""
  },
  {
    "name": "Islamic Society of North America",
    "address": "Po Box 38",
    "city": "Plainfield",
    "state": "Indiana",
    "zip_code": 46168,
    "country": "United States",
    "phone": "",
    "Website": "https://isna.net/",
    "email_primary": "info@isna.net",
    "contact_person": "",
    "contact_person_role": "",
    "latitude": "",
    "longitude": ""
  },
  {
    "name": "Masjid Al-Noor | Islamic Society of Michina",
    "address": "3310 Hepler St",
    "city": "South Bend",
    "state": "Indiana",
    "zip_code": 46635,
    "country": "United States",
    "phone": "574-272-0569",
    "Website": "http://www.michianamuslims.org/",
    "email_primary": "contact@michianamuslims.org",
    "contact_person": "",
    "contact_person_role": "",
    "latitude": "",
    "longitude": ""
  },
  {
    "name": "AL-ILM Weekend School",
    "address": "4950 W 34th Indianapolis",
    "city": "Indianapolis",
    "state": "Indiana",
    "zip_code": 46224,
    "country": "United States",
    "phone": "317-672-0488",
    "Website": "https://alilmschool.org/",
    "email_primary": "support@alilmschool.org",
    "contact_person": "",
    "contact_person_role": "",
    "latitude": "",
    "longitude": ""
  },
  {
    "name": "Shia Islamic Center of Michigan City",
    "address": "613 Greentree Dr",
    "city": "Trail Creek",
    "state": "Indiana",
    "zip_code": 46360,
    "country": "United States",
    "phone": "219-879-9667",
    "Website": "https://islamiccenterofmichigancity.org/",
    "email_primary": "syedshahicmc@tgmail.com",
    "contact_person": "",
    "contact_person_role": "",
    "latitude": "",
    "longitude": ""
  },
  {
    "name": "Islamic Society of Greater Lafayette",
    "address": "1022 Frist St.",
    "city": "West Lafayette",
    "state": "Indiana",
    "zip_code": 47906,
    "country": "United States",
    "phone": "765-743-8650",
    "Website": "https://www.masjidisgl.org/index",
    "email_primary": "admin@masjidisgl.org",
    "contact_person": "",
    "contact_person_role": "",
    "latitude": "",
    "longitude": ""
  },
  {
    "name": "Masjid Darul Arqum | Islamic Community of Quad Cities",
    "address": "1212 Iowa Ave",
    "city": "Ames",
    "state": "Iowa",
    "zip_code": 50014,
    "country": "United States",
    "phone": "515-292-3683",
    "Website": "http://new.arqum.org/index.cfm",
    "email_primary": "info@arqum.org",
    "contact_person": "",
    "contact_person_role": "",
    "latitude": "",
    "longitude": ""
  },
  {
    "name": "Muslim Community Center of Quas Cities",
    "address": "2115 Kimberly Rd",
    "city": "Bettendorf",
    "state": "Iowa",
    "zip_code": 52782,
    "country": "United States",
    "phone": "563-359-8123",
    "Website": "https://mcqc.org/",
    "email_primary": "info@mcqc.org",
    "contact_person": "",
    "contact_person_role": "",
    "latitude": "",
    "longitude": ""
  },
  {
    "name": "Mother Mosque of North America",
    "address": "1335 Ninth St. Nw",
    "city": "Cedar Rapids",
    "state": "Iowa",
    "zip_code": 52405,
    "country": "United States",
    "phone": "319-366-3150",
    "Website": "https://www.crmosque.org/",
    "email_primary": "info@crmosque.com",
    "contact_person": "",
    "contact_person_role": "",
    "latitude": "",
    "longitude": ""
  },
  {
    "name": "Muslim American Society of Iowa",
    "address": "2121 North Towne Lane Ne",
    "city": "Cedar Rapids",
    "state": "Iowa",
    "zip_code": 52402,
    "country": "United States",
    "phone": "319-892-0256",
    "Website": "https://masiowa.org/",
    "email_primary": "info@masiowa.org",
    "contact_person": "",
    "contact_person_role": "",
    "latitude": "",
    "longitude": ""
  },
  {
    "name": "Islamic Society of Clinton County",
    "address": "1500 2nd Ave S",
    "city": "Clinton",
    "state": "Iowa",
    "zip_code": 52732,
    "country": "United States",
    "phone": "563-243-8421",
    "Website": "https://www.ciciowa.org/",
    "email_primary": "anisansari5@gmail.com",
    "contact_person": "",
    "contact_person_role": "",
    "latitude": "",
    "longitude": ""
  },
  {
    "name": "Tri-State Islamic Center",
    "address": "805 Century Dr Suite 101",
    "city": "Dubuque",
    "state": "Iowa",
    "zip_code": 52002,
    "country": "United States",
    "phone": "815-501-4563",
    "Website": "https://tristateislamic.center/",
    "email_primary": "info@tristateislamic.center",
    "contact_person": "",
    "contact_person_role": "",
    "latitude": "",
    "longitude": ""
  },
  {
    "name": "Masjid Al-Iman | Al-Iman Center of Iowa",
    "address": "1812 W. Benton St.",
    "city": "Iowa City",
    "state": "Iowa",
    "zip_code": 52246,
    "country": "United States",
    "phone": "319-354-6167",
    "Website": "https://iowacitymosque.org/index.html",
    "email_primary": "iowacitymosque@yahoo.com",
    "contact_person": "",
    "contact_person_role": "",
    "latitude": "",
    "longitude": ""
  },
  {
    "name": "Mosque of Sious City",
    "address": "1219 Jones St",
    "city": "Sioux City",
    "state": "Iowa",
    "zip_code": 51105,
    "country": "United States",
    "phone": "712-234-1670",
    "Website": "",
    "email_primary": "",
    "contact_person": "",
    "contact_person_role": "",
    "latitude": "",
    "longitude": ""
  },
  {
    "name": "Islamic Center of Des Moines",
    "address": "6201 Franklin Ave",
    "city": "Urbandale",
    "state": "Iowa",
    "zip_code": 50322,
    "country": "United States",
    "phone": "515-255-0212",
    "Website": "https://www.islamiccenterdm.com/",
    "email_primary": "icdm.support@gmail.com",
    "contact_person": "",
    "contact_person_role": "",
    "latitude": "",
    "longitude": ""
  },
  {
    "name": "Masjid Al Noor | Islamic Center of Waterloo",
    "address": "2110 Sager Ave",
    "city": "Waterloo",
    "state": "Iowa",
    "zip_code": 50701,
    "country": "United States",
    "phone": "319-233-6640",
    "Website": "https://masjidalnooriowa.org/",
    "email_primary": "masjidwcf@gmail.com",
    "contact_person": "",
    "contact_person_role": "",
    "latitude": "",
    "longitude": ""
  },
  {
    "name": "Islamic Center of Emporia",
    "address": "1125 Mechanic St.",
    "city": "Emporia",
    "state": "kansas",
    "zip_code": 66801,
    "country": "United States",
    "phone": "620-343-9229",
    "Website": "https://www.islamiccenteremporia.org/",
    "email_primary": "icek1234ks@yahoo.com",
    "contact_person": "",
    "contact_person_role": "",
    "latitude": "",
    "longitude": ""
  },
  {
    "name": "Az-Zahra Islamic Center",
    "address": "8350 Leavenworth Rd",
    "city": "Kansas City",
    "state": "kansas",
    "zip_code": 66109,
    "country": "United States",
    "phone": "913-440-4786",
    "Website": "https://www.az-zahraa.org/",
    "email_primary": "",
    "contact_person": "",
    "contact_person_role": "",
    "latitude": "",
    "longitude": ""
  },
  {
    "name": "Islamic Center of Lawrence",
    "address": "1917 Naismith Dr",
    "city": "Lawrence",
    "state": "kansas",
    "zip_code": 66046,
    "country": "United States",
    "phone": "785-749-1638",
    "Website": "https://iclks.org/",
    "email_primary": "info@islamicsocietylawrence.org",
    "contact_person": "",
    "contact_person_role": "",
    "latitude": "",
    "longitude": ""
  },
  {
    "name": "Islamic Center of Leavenworth",
    "address": "545 Oregon St",
    "city": "Leavenworth",
    "state": "kansas",
    "zip_code": 66048,
    "country": "United States",
    "phone": "913-683-0905",
    "Website": "http://leavenworthmuslims.weebly.com/",
    "email_primary": "info@leavenworthmuslims.org",
    "contact_person": "",
    "contact_person_role": "",
    "latitude": "",
    "longitude": ""
  },
  {
    "name": "Islamic Center of Manhattan",
    "address": "1224 HHylton Hights",
    "city": "Manhattan",
    "state": "kansas",
    "zip_code": 66502,
    "country": "United States",
    "phone": "785-340-5774",
    "Website": "https://icmks.org/blog/",
    "email_primary": "info@icmks.org",
    "contact_person": "",
    "contact_person_role": "",
    "latitude": "",
    "longitude": ""
  },
  {
    "name": "Islamic Center of Kansas",
    "address": "14750 W 143rd St",
    "city": "Olathe",
    "state": "kansas",
    "zip_code": 66062,
    "country": "United States",
    "phone": "913-390-5055",
    "Website": "https://ickansas.org/",
    "email_primary": "info@ickansas.org",
    "contact_person": "",
    "contact_person_role": "",
    "latitude": "",
    "longitude": ""
  },
  {
    "name": "Islamic Center of Johnson Country",
    "address": "9001 W. 151st St",
    "city": "Overland Park",
    "state": "kansas",
    "zip_code": 662211,
    "country": "United States",
    "phone": "913-239-0770",
    "Website": "https://www.icjc.org/",
    "email_primary": "icjcounty@hotmail.com",
    "contact_person": "",
    "contact_person_role": "",
    "latitude": "",
    "longitude": ""
  },
  {
    "name": "Shawnee Mission Islamic Education Center",
    "address": "13420 Oak St",
    "city": "Shawnee Mission",
    "state": "kansas",
    "zip_code": 66215,
    "country": "United States",
    "phone": "913-303-0162",
    "Website": "https://smiec.org/",
    "email_primary": "info@smiec.org",
    "contact_person": "",
    "contact_person_role": "",
    "latitude": "",
    "longitude": ""
  },
  {
    "name": "Islamic Center of Topeka",
    "address": "1115 S. E. 27th St",
    "city": "Topeka",
    "state": "kansas",
    "zip_code": 66605,
    "country": "United States",
    "phone": "785-233-1171",
    "Website": "http://topekamosque.org/",
    "email_primary": "islamiccenteroftopeka@gmail.com",
    "contact_person": "",
    "contact_person_role": "",
    "latitude": "",
    "longitude": ""
  },
  {
    "name": "Masjid Al-Noor | Islamic Society of Wichita",
    "address": "3104 E. 17th St. N",
    "city": "Wichita",
    "state": "kansas",
    "zip_code": 67214,
    "country": "United States",
    "phone": "316-516-8939",
    "Website": "https://www.myisw.org/",
    "email_primary": "officemanager@myisw.org",
    "contact_person": "",
    "contact_person_role": "",
    "latitude": "",
    "longitude": ""
  },
  {
    "name": "Islamic Society of Wichita Falls",
    "address": "1701 Trigg Lane",
    "city": "Wichita Falls",
    "state": "kansas",
    "zip_code": 67206,
    "country": "United States",
    "phone": "",
    "Website": "https://www.islamicsocietywf.org/",
    "email_primary": "",
    "contact_person": "",
    "contact_person_role": "",
    "latitude": "",
    "longitude": ""
  },
  {
    "name": "Bosnian Islamic Center of Bowling Green",
    "address": "115 Dishman Lane",
    "city": "Bowling Green",
    "state": "Kentucky",
    "zip_code": 42101,
    "country": "United States",
    "phone": "270-799-4852",
    "Website": "http://www.bicbg.org/",
    "email_primary": "bicbg@izbsa.com",
    "contact_person": "",
    "contact_person_role": "",
    "latitude": "",
    "longitude": ""
  },
  {
    "name": "Islamic Center of Northern Kentucky",
    "address": "8142 Mall Rd",
    "city": "Burlington",
    "state": "Kentucky",
    "zip_code": 41042,
    "country": "United States",
    "phone": "",
    "Website": "https://www.icnky.com/",
    "email_primary": "",
    "contact_person": "",
    "contact_person_role": "",
    "latitude": "",
    "longitude": ""
  },
  {
    "name": "Islamic Center of Danville",
    "address": "656 Ben Ali Dr No 308",
    "city": "Danville",
    "state": "Kentucky",
    "zip_code": 40422,
    "country": "United States",
    "phone": "606-936-1694",
    "Website": "https://www.danvillemasjid.com/",
    "email_primary": "contact@danvillemasjid.com",
    "contact_person": "",
    "contact_person_role": "",
    "latitude": "",
    "longitude": ""
  },
  {
    "name": "Islamic Center of Elizabethtown",
    "address": "2816 Ring Rd",
    "city": "Elizabethtown",
    "state": "Kentucky",
    "zip_code": 41042,
    "country": "United States",
    "phone": "270-765-7190",
    "Website": "https://sites.google.com/view/etownmasjid",
    "email_primary": "muhammadibrahimsheikh1997@gmail.com",
    "contact_person": "",
    "contact_person_role": "",
    "latitude": "",
    "longitude": ""
  },
  {
    "name": "Islamic Center of Frankfort",
    "address": "741 Schenkel Ln",
    "city": "Frankfort",
    "state": "Kentucky",
    "zip_code": 40601,
    "country": "United States",
    "phone": "502-227-8641",
    "Website": "https://www.islamiccenterfrankfortky.org/",
    "email_primary": "",
    "contact_person": "",
    "contact_person_role": "",
    "latitude": "",
    "longitude": ""
  },
  {
    "name": "Masjid Bilal Ibn Rabah",
    "address": "1545 Russell Cave Rd",
    "city": "Lexington",
    "state": "Kentucky",
    "zip_code": 40505,
    "country": "United States",
    "phone": "770-629-2220",
    "Website": "https://masjidbilalibnrabaah.com/",
    "email_primary": "info@masjidbilalibnrabaah.com",
    "contact_person": "",
    "contact_person_role": "",
    "latitude": "",
    "longitude": ""
  },
  {
    "name": "Islamic Center of Lexington",
    "address": "649 S. Limestone St",
    "city": "Lexington",
    "state": "Kentucky",
    "zip_code": 40508,
    "country": "United States",
    "phone": "240-317-7299",
    "Website": "https://www.iclpmd.org/",
    "email_primary": "iclpmd@gmail.com",
    "contact_person": "",
    "contact_person_role": "",
    "latitude": "",
    "longitude": ""
  },
  {
    "name": "Muslim Community Center of Louisville",
    "address": "8215 Old Westport Rd",
    "city": "Louisville",
    "state": "Kentucky",
    "zip_code": 40222,
    "country": "United States",
    "phone": "502-412-7825",
    "Website": "https://www.mcclou.org/",
    "email_primary": "mcclouky@gmail.com",
    "contact_person": "",
    "contact_person_role": "",
    "latitude": "",
    "longitude": ""
  },
  {
    "name": "Islamic Cultural Center of Louisville",
    "address": "4007 N Upper River Rd",
    "city": "Louisville",
    "state": "Kentucky",
    "zip_code": 40207,
    "country": "United States",
    "phone": "502-442-1718",
    "Website": "https://www.louisvilleislamiccenter.org/",
    "email_primary": "mosque.riverroad@gmail.com",
    "contact_person": "",
    "contact_person_role": "",
    "latitude": "",
    "longitude": ""
  },
  {
    "name": "Abubakar Islamic Center of Louisville",
    "address": "1536 S 7th St",
    "city": "Louisville",
    "state": "Kentucky",
    "zip_code": 40214,
    "country": "United States",
    "phone": "502-442-1718",
    "Website": "http://www.aicl.webs.com/",
    "email_primary": "osmannoor29@yahoo.com",
    "contact_person": "",
    "contact_person_role": "",
    "latitude": "",
    "longitude": ""
  },
  {
    "name": "Al-Zaharah Islamic Education Center",
    "address": "4010 Bishop Lane",
    "city": "Louisville",
    "state": "Kentucky",
    "zip_code": 40218,
    "country": "United States",
    "phone": "502-969-2199",
    "Website": "https://www.elzahra.org/?page_id=1701",
    "email_primary": "info@elzahra.org",
    "contact_person": "",
    "contact_person_role": "",
    "latitude": "",
    "longitude": ""
  },
  {
    "name": "Bosnian American Islamic Center",
    "address": "5927 Six Mile Ln",
    "city": "Louisville",
    "state": "Kentucky",
    "zip_code": 40218,
    "country": "United States",
    "phone": "502-495-5092",
    "Website": "https://sites.google.com/view/baic-new/home?authuser=0",
    "email_primary": "baic@dzematlouisville.org",
    "contact_person": "",
    "contact_person_role": "",
    "latitude": "",
    "longitude": ""
  },
  {
    "name": "Masjid Al Farooq | Islamic Center of Eastern Kentucky",
    "address": "8 Masjid Ave",
    "city": "Prestonsburg",
    "state": "Kentucky",
    "zip_code": 41653,
    "country": "United States",
    "phone": "606-889-0626",
    "Website": "",
    "email_primary": "",
    "contact_person": "",
    "contact_person_role": "",
    "latitude": "",
    "longitude": ""
  },
  {
    "name": "Islamic Center of Richmond",
    "address": "203 Hanover St",
    "city": "Richmond",
    "state": "Kentucky",
    "zip_code": 40475,
    "country": "United States",
    "phone": "859-625-0353",
    "Website": "https://www.icrva.org/",
    "email_primary": "info@icrva.org",
    "contact_person": "",
    "contact_person_role": "",
    "latitude": "",
    "longitude": ""
  }
]