"OBJECTID","SCHOOL_NAME","PHONE","SCHOOL_ADDRESS","CITY","STATE","ZIP_CODE","COUNTRY","HEAD_OF_SCHOOL","EMAIL_ADDRESS","WEBSITE","ENROLLMENT_SIZE","ESTABLISHED_YEAR","GRADE_BRACKETS","TUITION_RANGE","ACCREDITATION_STATUS","FEATURES","SCHOOL_SERVICES_PROGRAMS","HIFDH_PROGRAM","FACEBOOK","INSTAGRAM","TWITTER","YOUTUBE","LINKEDIN","FLICKR","FID","LATITUDE","LONGITUDE"
1,"Al-Iman Academy of Mobile","(251) 605-6745","36 East Dr, Mobile, AL 36608","Mobile","Alabama","Prek-12th","United States","","alimanacademy99@gmail.com","http://alimanacademyofmobile.com/",86,"","Prek-12th","$3000-$5000","","Sibling disc. E-learning portal,","","","https://www.facebook.com/alimanacademyofmobile/","","","","","",1,30.6888725,-88.18029399999999
2,"Islamic Academy of Huntsville - IAH","(256) 722-9838","1645 Sparkman Dr NW, Huntsville, AL 35816","Huntsville","Alabama","Prek-5th","United States","Mussarat Qureshi","office@islamicacademyofhuntsville.org","http://IslamicAcademyofHuntsville.org",42,1997,"Prek-5th","$3000-$4999","Yes","sibling disc, uniform, Library, science and computer labs, smart board at classrooms, competitions, Extra curricular (Art and daily PE), Leveled Quraan classes, Character building.","","No","","","","","","",2,34.7426918,-86.6484852
3,"Iqra Math and Science Academy","(256) 403-6161","1821 Mccall Dr","Anniston","Alabama","KG-12th","United States","Adam Demir","secretary@imsacademy.org","imsacademy.org",92,2011,"KG-12th","$7000-$8999","Yes","College preparatory, Building character, Sibling disc, scholarship, dorms, dual program, MAP testing, International students, afterschool clubs, AP classes, Free clinic for students and community, Uniform, library, science and computer labs, ESL program, lunch program for boarding students","","Yes","https://www.facebook.com/faceIMSA/","https://www.youtube.com/channel/UCvWiWeJI3kJ7Po-7NCMw45Q","https://twitter.com/tweetimsa","","","",3,,
4,"Al Huda Islamic School","(520) 624-8182","2800 E River Rd, Tucson, AZ 85718","Tucson","Arizona","","United States","","","https://www.facebook.com/ALHUDAAZ.ORG/","","","","","Yes","","","","","","","","","",4,32.2841244,-110.9310346
5,"Noor Academy of Arizona","(480) 829-1443","1130 W 23rd St, Tempe, AZ 85282","Tempe","Arizona","Prek-8th","United States","Fuad Alnatsheh","frontdesk@nooracademyaz.com","http://www.nooracademyaz.com",100,1998,"Prek-8th","$7000-$8999","Yes","hot lunch, scholarship, science and computer labs, uniforms, sibling disc, financial aid, C/ch program, PTA, Sports, Afterschool clubs, competitions (science fair, quraan, spelling bee), ESL, digital citizenship","","No","https://www.facebook.com/NoorAcademyofArizona","","","","","",5,33.40403149999999,-111.9556492
6,"Al-Ansar Academy","(714) 535-6981","1717 S Brookhurst St, Anaheim, CA 92804","Anaheim","California","","United States","Mrs. Shaista Javeed","office@alansaracademy.org","http://www.alansaracademy.org",50,2005,"","","No","hot lunch, scholarship, uniforms, sibling disc, staff disc; financial aid","","No","https://www.facebook.com/alansaracademyanaheim","","","","","",6,33.8055971,-117.9595433
7,"Al-Hadi School","(323) 771-9135","5150 Gage Ave, Bell, CA 90201","Bell","California","","United States","Br. Salem Fahs","info@alhadischool.org","http://www.alhadischool.org/","",1996,"","","","","","","","","","","","",7,33.9761826,-118.1730646
8,"Institute of Knowledge","(909) 595-2401","1009 Vía Sorella, Diamond Bar, CA 91789","Diamond Bar","California","TK - 10th","United States","Abdulrahman Hachache, Imran Ahmed","school@instituteofknowledge.com","https://instituteofknowledge.com/school/","250-300",2000,"TK - 10th","$5000-$6999","Yes","STEM, Debate, Afterschool clubs, Student Leadership, Alumni, WASC Accredited","","yes","https://www.facebook.com/IOKDiamondBar/","https://www.instagram.com/iokdiamondbar/","https://twitter.com/iokdiamondbar","","","",8,33.999682,-117.8380572
9,"Granada Islamic School","(408) 980-1161","3003 Scott Blvd, Santa Clara, CA 95054","Santa Clara","California","Prek-12th","United States","Nesreen Jambaih & Haseeb Sadat","","http://www.granadaschool.org",500,1988,"Prek-12th","$8,000-12,000","Yes","scholarship, science and computer lab, uniforms, sibling disc,financial aid, Sport teams, Library, Model UN,","","No","https://www.facebook.com/Granada.Islamic.School/","https://www.instagram.com/granadaschool/","","","","",9,37.3771804,-121.9592202
10,"ICC Community School","951-547-9294","3619 N Garey Ave, Pomona, CA 91767","Pomona","California","Prek-8th","United States","Amal M. Taher","v.ataya@icccschool.org","https://www.icccschool.org/",78,1993,"Prek-8th","$5000-$6999","Yes","hot lunch, scholarship, science lab, uniforms,financial aid, competitions,","","No","https://www.facebook.com/icccommunityschool/","https://www.instagram.com/iccschool/?hl=en","","","","",10,34.1086065,-117.7491114
11,"ISCN: The Learning Center","951 264-6739","495 Santana Way, Corona, CA 92881","Corona","California","Prek-8th","USA","Aniqa Janjua","schooldirector.tlc@gmail.com","https://www.tlc-corona.org/","100-150",2012,"Prek-8th","$3000-$4999","No","robotics, STEM","","yes","","","","","","",11,33.8511327,-117.5618038
12,"Islamic Academy of Riverside","(951) 682-1202","1038 W. Linden St.","Riverside","California","Prek-8th","United States","Reham Shaath","rshaath@islamicacademyofriverside.org","https://islamicacademyofriverside.org/",82,1987,"Prek-8th","$3000-$4999","Yes","PE, PTO, Competitions, lunch but not this year, Science/Computer lab, Uniform, Financial aid, sibling disc,","","No","https://www.facebook.com/Islamic-Academy-of-Riverside-178701278878477/","https://www.instagram.com/iarschool/?hl=en","","","","",12,,
13,"Meraj Academy","(818) 886-5831","11070 Old Santa Susana Pass Rd, Chatsworth, CA 91311","Chatsworth","California","Prek-8th","United States","","admin@merajacademy.info","https://www.merajacademy.info/","",1994,"Prek-8th","$7000-$8999","Yes","Sibling disc, afterschool care, robotics and coding, AI and STEM, clubs, competitions, sport fields,","","","https://www.facebook.com/merajchatsworth","","","","","",13,34.271447,-118.6064876
14,"New Horizon School, Irvine - Upper Campus","(949) 281-0054","10 Marconi, Irvine, CA 92618","Ladera Ranch","California","3rd-8th","United States","Dina Eletreby","deletreby@nhirvine.org","http://newhorizonirvine.org",158,2018,"3rd-8th","19000+","Yes","hot lunch, science and computer lab, uniforms, sibling disc,financial aid, after school clubs, PTO, ESL, Social and emotional program, Sports teams and competitions, digital citizenship program, competitions","","No","https://www.facebook.com/nhirvine/","https://www.instagram.com/nhirvine/?hl=en","https://twitter.com/nhirvine/","","","",14,33.64209,-117.720157
15,"New Horizon School Pasadena","(626) 795-5186","651 N Orange Grove Blvd, Pasadena, CA 91103","Pasadena","California","Prek-8th","United States","Amira Al-Sarraf","aalsarraf@newhorizonschool.org","http://newhorizonschool.org",119,1984,"Prek-8th","$17000-$18999","Yes","Competition, SEL, STEM, Debate team, peace garden, performing art(concert, playing instruments, act plays, sing, , ..), afterschool care, summer camp, sport teams, citizenship program, trip to wash DC, parents club, International students, ESL, transportation, financial aid, Title IX compliance","","","https://www.facebook.com/NewHorizonSchoolPasadena","https://www.instagram.com/nhspasadena/","https://twitter.com/nhspasadena","","","",15,34.1552132,-118.1564596
16,"New Horizon School Westside","(310) 231-6092","1819 Sawtelle Blvd, Los Angeles, CA 90025","Los Angeles","California","Prek-5th","United States","Dalal Hassouna-Antabli","info@newhorizonwestside.com","https://newhorizonwestside.org/",125,1995,"Prek-5th","","Yes","Character building program, after school care, homework club, summer camp, discount and scholarships","","No","https://www.facebook.com/NewHorizonSchoolWestside/","","","","","",16,34.0433101,-118.4460945
17,"New Horizon School-Los Angeles","(213) 480-3145","434 S Vermont Ave, Los Angeles, CA 90020","Los Angeles","California","Prek-5th","United States","Jolanda Hussain-Herdriks","info@newhorizonla.org","http://www.newhorizonla.org",75,1984,"Prek-5th","$5000-$6999","Yes","hot lunch, science lab, uniforms, library, computer lab, PE, Wellness wednesday, Sibling discount, financial aid,  Afterschool Hifz online program with additional fees","","Yes","https://www.facebook.com/NHSLosAngeles/","https://www.instagram.com/nhslosangeles/","https://twitter.com/newhorizon_la","","","",17,34.0664608,-118.2912604
18,"Pillars Academy (formerly Al-Ridah Academy)","(949) 951-0442","23581 Madero Dr., Ste. 104","Mission Viejo","California","","United States","Adita Arya","info@pillarsacademy.org","http://www.pillarsacademy.org/",180,2000,"","","Yes","sibling disc","","No","","","","","","",18,,
19,"Quba Islamic School (formerly New Dimensions)","(909) 620-5297","19164 E Walnut Dr N, Rowland Heights, CA 91748","North Rowland Heights","California","K-11th","United States","Nadia Kashuka. - Principal","info@qubais.org","https://www.qubais.org/","72 - 100","2021-2022","K-11th","$600/month","Fall of 2023 for accreditation","uniforms, ESL, California Exit Exam, upto 12th Grade Diploma, Local community college dual enrollment, science lab, student body/ government, public speaking training, National and Local Competition across various subjects, Family Discount Consideration, Sponsorships","","Yes","","","","","","",19,33.9953969,-117.8843317
20,"Qurtobah School (now homeschool only)","(323) 731-2581","3420 W Jefferson Blvd, Los Angeles, CA 90018","Los Angeles","California","","United States","M. Alazzawi","","","","","","","","","","","","","","","","",20,34.0254775,-118.3336443
21,"Salam Elementary","(916) 979-1933","4541 College Oak Dr, Sacramento, CA 95841","Sacramento","California","","United States","Maren","admin@salamacademy.com","http://salamacademy.com","","","","","","","","","","","","","","",21,38.6473722,-121.3514827
22,"Silicon Valley Academy","(408) 243-9333","195 Leota Ave, Sunnyvale, CA 94086","Sunnyvale","California","Prek-12th","United States","Mona Nezzar","mnezzar@svamail.com","http://svaschool.org",145,1997,"Prek-12th","$9000-$10999","No","uniform, science lab, financial aid, sibling discount","","No","https://www.facebook.com/siliconvalleyacademy/","https://www.instagram.com/siliconvalleyacademy/?hl=en","https://twitter.com/SiliconValleya2","","","",22,37.3807509,-122.0503183
23,"Valley Crescent School","(559) 298-0023","547 W Nees Ave, Clovis, CA 93611","Clovis","California","K-8th","United States","Gharib Khalil","gkhalil@vcsfresno.net","http://vcsfresno.net",130,2001,"K-8th","$3000-$4999","Yes","transportation (used to), clubs, uniform, hot lunch (used to), financial aid, sib disc","","Yes","https://www.facebook.com/ValleyCrescentSchoolClovis/","","","","","",23,36.8527999,-119.7238428
24,"Islamic Academy of Delaware","(302) 455-9988","Newark, DE 19713","Newark","Delaware","Prek-8th","United States","Nidal Abussi","","http://www.iadonline.org",120,2008,"Prek-8th","$3000-$4999","Yes","","","No","https://www.facebook.com/IslamicAcademyofDelaware","","","","","",24,39.670937,-75.7080727
25,"Tarbiyah Islamic School of Delaware","(302) 533-8114","706 S Old Baltimore Pike, Newark, DE 19702","Newark","Delaware","Prek-8th","United States","Dr. Amna Latif","info@TarbiyahSchool.org","http://tarbiyahschool.org",23,2011,"Prek-8th","$3000-$4999","No","","","Yes","https://www.facebook.com/TarbiyahSchool/","","","","","",25,39.6452537,-75.7161536
26,"Al-Furqan Academy","(904) 645-0810","2333 St Johns Bluff Rd S, Jacksonville, FL 32246","Jacksonville","Florida","Prek-12th","United States","Mohamed Arab","Office@alfurqanacademy.org","http://www.alfurqanacademy.org",261,1997,"Prek-12th","$7000-$8999","Yes","scholarship, science lab, uniforms, sibling disc,","","No","https://www.facebook.com/FurqanAcademy/","","","","","",26,30.3075837,-81.52516349999999
27,"American Youth Academy","(813) 987-9282","5905 E 130th Ave, Tampa, FL 33617","Tampa","Florida","Prek-12th","United States","Eman Khalifeh","marketingdirector@ayatampa.com","http://www.ayatampa.org",720,1992,"Prek-12th","$8000-9000","Yes","hot lunch, financial aid, science lab, uniforms, sibling disc, financial aid","","Yes","https://www.facebook.com/AmericanYouthAcademyTampa/?ref=bookmarks","https://twitter.com/Tampa_AYA","https://www.instagram.com/american_youth_academy_/","","","",27,28.064372,-82.3903362
28,"Darul Uloom Institute & Islamic Training Center","(954) 963-9514","7050 Pines Blvd, Pembroke Pines, FL 33023","Pembroke Pines","Florida","","United States","Maulana Shafayat Mohamed","Alhikmat@hotmail.com","http://www.alhikmat.com/darululoomflorida.html","",1994,"","","","","","","","","","","","",28,26.0087164,-80.22873299999999
29,"Garden of the Sahaba Academy","(561) 395-3011","3100 NW 5th Ave, Boca Raton, FL 33431","Boca Raton","Florida","Prek-12th","United States","Fathi Khalfi","fathi@assahaba.org","http://www.assahaba.org",200,2003,"Prek-12th","$7000-$8999","Yes","scholarship, science lab, uniforms, financial aid, staff disc., transportation only to North, competitions, ESL program","","No","https://www.facebook.com/GSAislamicschool/?ref=aymt_homepage_panel","https://www.instagram.com/gardenofthesahaba/","","","","",29,26.3797549,-80.09336499999999
30,"Izzadeen Academy","(321) 948-9958","4992 W Irlo Bronson Memorial Hwy, Kissimmee, FL 34746","Kissimmee","Florida","Prek-12th","United States","Wafaa Alkhateeb","info@izzadeenacademy.org","http://izzadeenacademy.org/",25,2020,"Prek-12th","$6600-$8000","In-progress","scholarship, sibling disc","","Yes","https://www.facebook.com/iaislamicschoolorlando/","https://www.instagram.com/izzadeen_academy/","https://twitter.com/AcademyIzzadeen","","","",30,28.3322461,-81.4826167
31,"Muslim Academy of Greater Orlando","(407) 238-0144","11551 Ruby Lake Rd, Orlando, FL 32836","Orlando","Florida","Prek-8th","United States","Jameer Abbas","jabbas@magorlando.net","https://magorlando.net/",323,2007,"Prek-8th","$5000-$6999","In-progress","scholarship, science lab, uniforms,","","No","https://www.facebook.com/MuslimAcademyofGreaterOrlando/","","","","","",31,28.397418,-81.50249649999999
32,"Nur Academy","(941) 343-3038","4350 N Lockwood Ridge Rd, Sarasota, FL 34235","Sarasota","Florida","","United States","Adris Khan","Nuracademyfl@gmail.com","https://nur-academy.org/",25,2018,"","$7000-$8999","No","scholarship,uniforms, sibling disc, financial aid","","No","https://www.facebook.com/nuracademyflorida","","","","","",32,27.3723722,-82.50408949999999
33,"Nur Ul Islam Academy","(954) 434-3288","10600 SW 59th St, Davie, FL 33328","Cooper City","Florida","Prek-12th","United States","Br. Kem Hussain","info@nuiacademy.com","https://nuiacademy.com/","400+",1996,"Prek-12th","","Yes","College prep","","","https://www.facebook.com/nuisouthflorida/","https://www.instagram.com/nuisouthflorida/","","","","",33,26.0450708,-80.2883583
34,"Palm Grove Academy","(352) 213-2721","1601 NE 26th St, Ocala, FL 34470","Ocala","Florida","","United States","Yousef Elyaman","info@palmgroveacademy.com","http://www.palmgroveacademy.com",10,2018,"","","No","uniforms, sibling disc,","","No","https://www.facebook.com/groups/801196260079611/","","","","","",34,29.2133958,-82.11690689999999
35,"Panama City Advanced School","(850) 784-2520","3332 Token Rd, Panama City, FL 32405","Panama City","Florida","","United States","Rashid Karaman","admin@pcasfl.org","http://www.pcasfl.net/",127,1995,"","","Yes","scholarship, uniforms, tax credit program","","No","https://www.facebook.com/PCAdvanced/","https://www.instagram.com/pcasfl/","https://twitter.com/PCAdvanced_FL?lang=en","","","",35,30.2089018,-85.6700887
36,"Reviver Academy","(786)-529-2568","560 NW 165th St, Miami, FL 33169","Miami","Florida","","United States","Omar Chatila","info@reviveracademy.com","https://reviveracademy.com/",70,2012,"","","In-progress","uniforms, financial aid","","No","facebook.com/reviveracademy","","","","","",36,25.9233792,-80.20927449999999
37,"Al-Furqan Academy","678-336-9938","568 N Norcross Tucker Rd, Norcross, GA 30071","Norcross","Georgia","K-12th","United States","Fareed Ahmed","Info@myalfurqan.com","https://www.myalfurqan.com/","",2014,"K-12th","$0-$2999","","Uniforms","","","https://www.facebook.com/MyAlfurqan/","","https://twitter.com/myalfurqan","","","",37,33.9286984,-84.2142618
38,"City of Knowledge Islamic School","(770) 638-1899","4255 Lawrenceville Hwy, Lilburn, GA 30047","Lilburn","Georgia","Prek-8th","United States","","director@cityofknowledgeschool.org","http://cityofknowledgeschool.org","",2000,"Prek-8th","$3000-$4999","In-progress","hot lunch, scholarship, science lab, uniforms, sibling disc","","No","https://www.facebook.com/people/City-of-Knowledge-Islamic-School/100064704935209/","https://www.instagram.com/cityofknowledge_islamicschool/","https://twitter.com/ckislamicschool","","","",38,33.9036524,-84.1232635
39,"Iqra Academy","(770) 682-6666","2329 Lawrenceville Hwy b1, Lawrenceville, GA 30044","Lawrenceville","Georgia","","United States","","fatimaali.iqra@gmail.com","http://iqraacademy.us",0,2000,"","","In-progress","hot lunch, scholarship, science lab, uniforms","","No","https://www.facebook.com/p/Iqra-Academy-100066473481826/","","","","","",39,33.9277635,-84.058802
40,"Risala Academy","(404) 856-0365","675 Village Square Dr, Stone Mountain, GA 30083","Stone Mountain","Georgia","","United States","Atiba Jones","risalaacademy@gmail.com","http://risalaislamicacademy.com",100,2008,"","","Yes","","","No","https://www.facebook.com/Risalaacademy/","","","","","",40,33.7965906,-84.2118641
41,"Mohammed Schools of Atlanta","(404) 378-4219","735 Fayetteville Rd SE, Atlanta, GA 30316","Atlanta","Georgia","Prek-12th","United States","Safiyyah Shahid","info@mohammedschools.org","https://www.mohammedschools.org/","",1965,"Prek-12th","$7000-$8999","Yes","Sibling disc, AP, Dual credit, MIST participation, clubs, alumni association","","","https://www.facebook.com/MohammedSchools","https://www.instagram.com/mohammedschools/","","","","",41,33.7369253,-84.3152915
42,"Abraar Academy","(708) 872 7867","Harvey, IL 60426","Harvey","Illinois","","United States","Iqbal U Vohra","info@citcd.org","http://citcd.org/",154,2012,"","","No","scholarship","","Yes","https://www.facebook.com/citcd.citcd.5","https://www.instagram.com/citcd/","https://twitter.com/CITCD","","","",42,41.612233,-87.65318049999999
43,"AL-Huda Academy","(630) 270-3130","7455 Jensen Blvd, Hanover Park, IL 60133","Hanover Park","Illinois","Prek-6th","United States","Samia Altaf","samia.altaf@alhudaacademy.com","http://www.alhudaacademy.com/",85,2007,"Prek-6th","$5000-$6999","No","hot lunch,uniforms, sibling disc; financial aid","","No","https://www.facebook.com/groups/25897234295/","https://www.instagram.com/alhudaacademyhanoverpark/","","","","",43,42.0082779,-88.14796679999999
44,"Aqsa School","(708) 598-2700","7361 W 92nd St, Bridgeview, IL 60455","Bridgeview","Illinois","Prek-12th","United States","Tammie Ismail","tismail@aqsa.edu","http://aqsa.edu",200,1986,"Prek-12th","","No","hot lunch, scholarship, science lab, uniforms, financial aid","","No","https://www.facebook.com/AqsaSchool/","https://www.instagram.com/explore/locations/774478689/aqsa-school/","https://twitter.com/aqsaschool?lang=en","","","",44,41.7237795,-87.8031516
45,"ICCD Academy","(773) 587-3786","480 Potter Rd, Des Plaines, IL 60016","Des Plaines","Illinois","","United States","Irfan Mohammed","islamicschool@iccofdesplaines.com","https://www.iccdislamicschool.org/",108,2016,"","$3000-$4999","No","hot lunch, scholarship, science lab, uniforms, financial aid, extracurricular activities, clubs","","Yes","","","","","","",45,42.0454049,-87.8608835
46,"ICCI Academy (Elementary School)","(773)-637-3755","6435 W Belmont Ave, Chicago, IL 60634","Chicago","Illinois","Prek-8th","United States","DR. Mohamed Elnatour","principal@icciacademy.com","http://icciacademy.com",85,2008,"Prek-8th","$5000-$6999","No","hot lunch,  science lab, uniforms, sibling disc","","No","https://www.facebook.com/people/ICCI-Academy/100064820178817/","","","","","",46,41.9379618,-87.78736219999999
47,"Institute of Islamic Education (Boarding School for Boys & Girls)","(847) 695-4685","1290 Bluff City Blvd, Elgin, IL 60120","Elgin","Illinois","","United States","Sulaiman Saleem","iie.office@islamicedu.org","https://www.islamicedu.org/","",1989,"","","","Boarding school","","Yes","","","","","","",47,42.0188955,-88.24041919999999
48,"Islamic Center of Naperville- Full Time School","(630) 544-6164","2844 W Ogden Ave, Naperville, IL 60540","Naperville","Illinois","Prek-4th","United States","","ftsadmin@icnmasjid.org","https://fts.icnmasjid.org/",36,1994,"Prek-4th","$5000-$6999","No","uniforms, sibling disc,","","No","","","","","","",48,41.753877,-88.20140099999999
49,"Islamic Foundation School","(630) 941-8800","300 W Highridge Rd, Villa Park, IL 60181","Villa Park","Illinois","Prek-12th","United States","Omar Qureshi","info@ifsvp.org","http://www.ifsvp.org/",654,1986,"Prek-12th","$7000-$8999","Yes","hot lunch, science lab, uniforms, sibling disc, staff disc","","Yes","https://www.facebook.com/IFSVP","","","","","",49,41.8681693,-87.9857727
50,"Makki Educational Academy","(773) 865-9275","4920 N Kimball Ave, Chicago, IL 60625","Chicago","Illinois","","United States","","school@meachicago.com","https://www.meachicago.org/",20,2016,"","$0-$2999","No","Sibling disc","","No","","","","","","",50,41.9709449,-87.713798
51,"Muhammed University of Islam","(773) 643-0700","Mosque Maryam, 7351 S Stony Is Ave, Chicago, IL 60649","Chicago","Illinois","Prek-12th","United States","","","http://www.muichicago.org","",1934,"Prek-12th","","","","","","","","","","","",51,41.7609157,-87.5844552
52,"Prairie Academy Elementary School","(773) 697-8410","613 W Bittersweet Pl, Chicago, IL 60613","Chicago","Illinois","","United States","Nedaa Alwawi","INFO@PRAIRIEACADEMY.ORG","https://www.prairieacademy.org/",27,2015,"","$15000-$16999","In-progress","scholarship, sibling disc, financial aid","","No","https://www.facebook.com/prairieacademy/?ref=bookmarks","https://www.instagram.com/prairieacademyschool/","https://twitter.com/Prairieacademy","","","",52,41.9552615,-87.6462432
53,"Rockford Iqra School","(815) 397-6899","5925 Darlene Dr, Rockford, IL 61109","Rockford","Illinois","Prek-12th","United States","Mona Nizamuddin","office@rockfordiqraschool.com","http://www.rockfordiqraschool.com",170,1998,"Prek-12th","","Yes","hot lunch, scholarship, science lab, uniforms, sibling disc,financial aid","","Yes","https://www.facebook.com/rockfordiqraschool/","","https://twitter.com/rockfordiqra","","","",53,42.2358376,-89.00082719999999
54,"Universal School","(708) 599-4100","7350 W 93rd St, Bridgeview, IL 60455","Bridgeview","Illinois","Prek-12th","United States","Aminah Murrar","supportstaff@universalschool.org","http://universalschool.org","660+",1990,"Prek-12th","$7000-$8999","Yes","After school clubs, scholarships, financial aid, hot lunch, MIST participation","","Yes","https://www.facebook.com/UniversalSchool/","https://www.instagram.com/universalschool.1/","https://twitter.com/univ_school","","","",54,41.7232895,-87.8019224
55,"Islamic School of Naperville","(630) 355-3733","450 Olesen Dr, Naperville, IL 60540","Naperville","Illinois`","","United States","","iibaig@msn.com","http://islamiccenterofnaperville.org",0,"","","","","","","","https://www.facebook.com/IslamicCenterOfNaperville","https://www.instagram.com/islamiccenterofnaperville/","https://twitter.com/ICNMasjid","","","",55,41.768307,-88.1201778
56,"Avicenna Academy","(219) 736-7100","9803 Colorado St, Crown Point, IN 46307","Crown Point","Indiana","Prek-8th","United States","Nuha Rifai","info@avicennaacdemy.org","http://avicennaacademy.org","",2004,"Prek-8th","","Yes","","","Yes","","","","","","",56,41.4396175,-87.2949725
57,"Islamic School of Plainfield","317-203-5769","2183 Stanley Rd, Plainfield, IN 46168","Plainfield","Indiana","Preschool- Prek","United States","Fatima Hussain","islamicschoolofplainfield@gmail.com","http://islamicschoolofplainfield.com/",10,1977,"Preschool- Prek","","In-progress","scholarship,  sibling disc, inancial aid","","No","https://www.facebook.com/UniversalSchoolofPlainfield/","","","","","",57,39.6894971,-86.36626849999999
58,"Annoor Islamic School","(316) 685-5768","6655 E 34th St N, Wichita, KS 67226","Wichita","Kansas","Prek-12th","United States","Michael Barton","principal@myannoor.org","http://www.myannoor.org",157,1989,"Prek-12th","$5000-$6999","Yes","financial aid, science lab, extracurriculars, sibling disc, hot lunch
Dual-credit classes, QIA,","","Yes","https://www.facebook.com/AnnoorIslamicSchoolWichita/","","","","","",58,37.7462351,-97.2578755
59,"Pioneers Academy","(651) 307-2928","1604 Brookdale Dr N, Brooklyn Park, MN 55444","Brooklyn Park","Minnesota","Prek-5th","United States","Elias Ali","info@pioneeracademy.org","http://pioneersacademy.org",77,2013,"Prek-5th","$7000-$8999","In-progress","hot lunch, uniforms, sibling disc","","No","https://www.facebook.com/Pioneers-Academy-582238075127451/info/?tab=page_info","","","","","",59,45.0950432,-93.3151537
60,"Lexington Universal Academy","(859) 272-3360","4580 Nicholasville Rd, Lexington, KY 40515","Lexington","Kentucky","Prek-8th","United States","Haitham Issa","office@luaky.org","http://www.luaky.org",161,2003,"Prek-8th","$5000-$6999","Yes","scholarship, science lab, uniforms, sibling disc","","Yes","https://facebook.com/luaschool","","https://www.instagram.com/islamicschooloflouisville/","","","",60,37.9643851,-84.53450560000002
61,"Brighter Horizon School of Baton Rouge","(225) 927-2521","1896 Wooddale Blvd, Baton Rouge, LA 70806","Baton Rouge","Louisiana","Prek-12th","United States","Anwar Hamdi","Principal@brighterhorizon.net","http://www.brighterhorizonschool.org",100,1994,"Prek-12th","$3000-$4999","In-progress","scholarship, science lab, uniforms, sibling disc","","No","https://www.facebook.com/BHSchoolBR/","","","","","",61,30.4658325,-91.11301390000001
62,"Omar Ibn Khattab Islamic School of Greater New Orleans","(504) 466-4055","2420 Illinois Ave, Kenner, LA 70062","Kenner","Louisiana","Prek-8th","United States","Fouzia Parveen","principal@isgno.net","http://www.isgno.net/","","","Prek-8th","$0-$2999","No","Uniform
STEM, extracurricular activities, after school clubs,","","Yes","https://m.facebook.com/profile.php?id=401264293357931","","","","","",62,30.00035059999999,-90.2375491
63,"Alhuda Academy","(508) 854-4700","248 Mountain St E, Worcester, MA 01606","Worcester","Massachusetts","Prek-8th","United States","Nadeem Sikandar
Mrs. Shakir (Interim Principal)","Principal@alhudaacademy.org","http://www.alhudaacademy.org/",97,2001,"Prek-8th","$7000-$8999","Yes","hot lunch, scholarship, science lab, uniforms, sibling disc, financial aid","","Yes","https://www.facebook.com/myAlhuda","","","","","",63,42.3182261,-71.77705279999999
64,"Al Hadi Learning Organization","(410) 808-3478","2704 Martello Dr, Silver Spring, MD 20904","Silver Spring","Maryland","Prek-K","United States","Sabera Husain","info@alhadi.school","http://alhadi.school",22,2017,"Prek-K","$7000-$8999","In-progress","","","No","https://www.facebook.com/AlHadiLearning/","https://www.instagram.com/al_hadi_learning_org/","","","","",64,39.0823877,-76.9553717
65,"Al-Rahmah School and Nursery","(410) 719-0921","6631 Johnnycake Rd, Baltimore, MD 21244","Baltimore","Maryland","K-12th","United States","Mehnaz fatima","mehnaz.fatima@alrahmah.org","http://www.alrahmah.org/",165,1987,"K-12th","$7000-$8999","Yes","hot lunch, scholarship, science lab, uniforms, sibling disc, financial aid
Quran academy, nursery, sunday school","","Yes","https://facebook.com/alrahmahschool","https://www.instagram.com/alrahmahschoolars/","https://twitter.com/AlRahmah","","","",65,39.3030755,-76.74801289999999
66,"An-Nur Academy","(301) 459-4942","9150 Lanham Severn Rd, Lanham, MD 20706","Lanham","Maryland","Prek-2nd","United States","","ijazamalik@aol.com","Webstie unavailable 
http://www.pgmamd.org/annur.php",36,"","Prek-2nd","","","","","","","","","","","",66,38.9674737,-76.85633059999999
67,"Islamic Community School","(410) 462-2021","1335 W North Ave, Baltimore, MD 21217","Baltimore","Maryland","","United States","","Baltimoreics@aol.com","no website available",0,1982,"","","","","","","https://www.facebook.com/IslamicCommunitySchool/","","","","","",67,39.3100233,-76.6392369
68,"Muslim Community School and Alim Academy","(301) 340-6713","7917 Montrose Rd, Potomac, MD 20854","Potomac","Maryland","Prek-12th","United States","Somayyah Nahidian","snahidian@mymcs.org","https://alimacademy.org/",88,1984,"Prek-12th","$9000-$10999","Yes","hot lunch, scholarship, science lab, uniforms, sibling disc,","","Yes","https://www.facebook.com/MCSandAApto","https://www.instagram.com/mcs_alimacademy_pto/","https://twitter.com/PtoMcs","","","",68,39.0578025,-77.165515
69,"Al Hamra Academy","(508) 845-7000","433 South St, Shrewsbury, MA 01545","Shrewsbury","Massachusetts","Prek-8th","United States","Noor Ali","noora@alhamraacademy.org","http://www.alhamraacademy.org",138,1994,"Prek-8th","$7000-$8999","Yes","hot lunch, scholarship, uniforms, sibling disc
early childhood, clubs, sports,","","Yes","https://facebook.com/1alhamra","https://www.instagram.com/al.hamra.academy/","https://twitter.com/alhamraacad","","","",69,42.2714426,-71.68385889999999
70,"Al-Noor Academy High School","(508) 261-7077","20 Church St, Mansfield, MA 02048","Mansfield","Massachusetts","Prek-12th","United States","SOFIANE HAFIANI","shafiani@alnooracademy.org","https://www.alnooracademy.org/","",1996,"Prek-12th","$7000-$8999","Yes","","","","https://www.facebook.com/Al-Noor-Academy-429784937073874/","","https://twitter.com/alnooracademy","","","",70,42.0297629,-71.2173131
71,"Knowledge Academy of Andover","(978) 774-3011","261 N Main St, Middleton, MA 01949","Middleton","Massachusetts","","United States","Oya Bozkurt","kaprincipal@gmail.com","",60,2010,"","","In-progress","hot lunch, scholarship, science lab, uniforms, sibling disc","","Yes","","","","","","",71,42.6159575,-71.0450951
72,"Malik Academy","(617) 868-2322","100 Malcolm X Blvd, Boston, MA 02119","Boston","Massachusetts","1-8th","United States","Tazeeya Syed","principal@malikacademy.org","http://MalikAcademy.org",80,2005,"1-8th","$5000-$6999","Yes","hot lunch, scholarship, sibling disc,
financial aid, breakfast, after school programs, uniforms","","No","https://www.facebook.com/MalikAcademyAndAlBustan","","https://twitter.com/MalikandBustan","","","",72,42.3308791,-71.0933695
73,"Malik Academy/ Al Bustan Pre-school","(617) 427-0500","808 Memorial Dr, Cambridge, MA 02139","Cambridge","Massachusetts","Prek-K","United States","Mrs. Mervat Zaghloul","info@malikacademy.org","http://malikacademy.org","",2005,"Prek-K","$5000-$6999","No","","","No","https://www.facebook.com/MalikAcademyAndAlBustan","","https://twitter.com/MalikandBustan","","","",73,42.3607318,-71.1153677
74,"Central Academy","(734) 332-9220
(734) 822-1100","2459 S Industrial Hwy, Ann Arbor, MI 48104","Ann Arbor","Michigan","Prek-12th","United States","Sejad Melkic
Luay Shalabi","melkics@gee-edu.com
shalabil@gee-edu.com","http://centralacademy.net","","","Prek-12th","$0-$2999","Yes","IB program,","","No","https://www.facebook.com/CentralAcademyAnnArbor/?ref=page_internal","https://www.instagram.com/geeacademies/","https://twitter.com/GEEAcademies","","","",74,42.2504891,-83.73174279999999
75,"Crescent Academy International","(734) 729-1000","40440 Palmer Rd, Canton, MI 48188","Canton","Michigan","Prek-8th","United States","Pembe Yasarlar","principal@crescentacademy.org","http://www.crescentacademy.org/",478,1991,"Prek-8th","$7000-$8999","Yes","hot lunch, scholarship, science lab, uniforms, sibling disc
enrichment workshops, sports, clubs, childcare","","Yes","https://www.facebook.com/CAIFB","","https://twitter.com/CrescentCAI","","","",75,42.2953035,-83.43844039999999
76,"Muneer Academy and Michigan Islamic Institute","(586) 999-9581","11200 E Eleven Mile Rd, Warren, MI 48089","Warren","Michigan","4th - 12th","United States","Shaykh Mohammed Ishtiaq","ishtiaq.muneeracademy@gmail.com","https://www.muneeracademy.org/","",2018,"4th - 12th","$5000-$6999","Yes","scholarships, full-time studies
full-time hifdh, full-time aalimah, Islamic Summer School, seerah, tafsir al-Quran, Principles of Islamic Jursiprudence, Weekend Quran class, Scholarships","","Yes","","","","","","",76,42.4909957,-83.0128193
77,"International Islamic Academy","(248) 626-0900","32220 Franklin Rd, Franklin, MI 48025","Franklin","Michigan","Prek-9th","United States","Mona Helmy","mona.helmy@hudaschool.org","http://hudaschool.org",392,1988,"Prek-9th","$7000-$8999","Yes","hot lunch, scholarship, science lab, uniforms, sibling disc,financial aid
IB program","","Yes","https://www.facebook.com/HudaSchoolMI/","","","","","",77,42.5236829,-83.3050671
78,"","(313) 584-6448","14350 Tireman Ave, Detroit, MI 48228","Detroit","Michigan","","United States","Sumaiya Gavell","iia@iiaschool.org","http://iiaschool.org",175,2011,"","","No","sibling disc, staff disc","","No","","","","","","",78,42.3521954,-83.1834971
79,"Islamic School of Grand Rapids","(616) 301-0110","3972 Rowland Ave SE, Grand Rapids, MI 49546","Grand Rapids","Michigan","Prek-2nd","United States","Halima Ismail
Lynn Smith","lsmith@islamicschoolgr.com","http://www.islamicschoolgr.com",17,2018,"Prek-2nd","$5000-$6999","No","scholarship, uniforms, sibling disc","","No","http://www.facebook.com/islamicschool.grandrapids","","","","","",79,42.921975,-85.57216969999999
80,"Muslim American Youth Academy (M.A.Y.A.)","(313) 436-3300","19500 Ford Rd, Dearborn, MI 48128","Dearborn","Michigan","Prek-8th","United States","Hajji Hala Hazimi","contact@mayaschool.org","Unable to reach webstie
http://www.maya-school.org","",2018,"Prek-8th","$7000-$8999","Yes","","","Yes","https://www.facebook.com/MAYASchool.org/","https://www.instagram.com/maya_school/","","","","",80,42.3303034,-83.2296882
81,"Dreamy Islamic Academy","","27335 W Warren St, Dearborn Heights, MI 48127","Dearborn Heights","Michigan","","","","","Unable to reach webstie
https://www.dreamyislamicacademy.org/","","","","","","","","","","","","","","",81,42.33964,-83.3117103
82,"Shajara Tayyiba","(734) 455-0255","7437 Sheldon Rd, Canton, MI 48187","Canton","Michigan","Prek-8th","","","office@shajaratayyiba.org","https://www.shajaratayyiba.org/","","","Prek-8th","","","Hifth program, associate degree, summer camp","","Yes","","","","","","",82,42.3388977,-83.479626
83,"Noor Academy","(248) 852-9345","879 W Auburn Rd, Rochester Hills, MI 48307","Rochester Hills","Michigan","Prek-2nd","United States","​Anjum Sultana","administrator@nooracademy.org","http://nooracademy.org",70,2005,"Prek-2nd","","In-progress","sibling disc","","No","","","","","","",83,42.63474009999999,-83.1496114
84,"Star International Academy","(313) 724-8990","24425 Hass St, Dearborn Heights, MI 48127","Dearborn Heights","Michigan","3rd - 12th","United States","Nawal Hamadeh","hsemco@aol.com","http://starpsa.org","",1998,"3rd - 12th","$0-$2999","No","","","Yes","https://www.facebook.com/starintacademy/","https://www.instagram.com/starintacademy/?hl=en","","","","",84,42.3334123,-83.27719909999999
84,"Star International Academy","(313) 724 - 8060","Dearborn Heights, MI 48127","Dearborn Heights","Michigan","Prek-2nd","United States","Nawal Hamadeh","hsemco@aol.com","http://starpsa.org","",1998,"Prek-2nd","$0-$2999","No","","","Yes","https://www.facebook.com/starintacademy/","https://www.instagram.com/starintacademy/?hl=en","","","","",84,42.3446054,-83.2827093
"","Star International Academy","(734) 331-3081","45081 Geddes Rd, Canton, MI 48188","Canton","Michigan","Prek-8th","United States","Nawal Hamadeh","hsemco@aol.com","http://starpsa.org","",1998,"Prek-8th","$0-$2999","No","","","Yes","https://www.facebook.com/starintacademy/","https://www.instagram.com/starintacademy/?hl=en","","","","","",42.2757304,-83.4819421
85,"Universal Academy","(313) 581-5006","Dearborn, MI 48120","Detroit","Michigan","Prek-12th","United States","Nawal Hamadeh","hsemco@aol.com","http://www.universalpsa.org","","","Prek-12th","$0-$2999","No","","","Yes","https://www.facebook.com/uadetroit","https://www.instagram.com/uadetroit/?hl=en","https://twitter.com/UADetroit?ref_src=twsrc%5Egoogle%7Ctwcamp%5Eserp%7Ctwgr%5Eauthor","","","",85,42.3049172,-83.1916937
86,"New Medina High School & Clara Muhammad School","(601) 909-0040","16 Al-Halim Road","Sumrall","Mississippi","K-12th","United States","Imam Alvin Shareef","info@newmedinahschools.org","https://newmedinahschools.org/index.html","",1991,"K-12th","$0-$2999","No","","","No","","","","","","",86,,
87,"Islamic School of Greater Kansas City","(816) 763-0322","8505 E 99 St, Kansas City, MO 64134","Kansas City","Missouri","Prek-5th","United States","Saba Hamouda","shamouda@iscgkc.org","http://iscgkc.org",0,1989,"Prek-5th","$3000-$4999","Yes","uniform, financial aid, lunch program, transportation, extracurricular activities","","Yes","https://www.facebook.com/iscgkc/","https://www.instagram.com/iscgkcschool/?hl=en","https://www.facebook.com/iscgkc/","","","",87,38.9429711,-94.49132379999999
88,"Muhammad Islamic Academy","(314) 495-6316","3625 N Garrison Ave, St. Louis, MO 63107","St. Louis","Missouri","Prek-12th","United States","Janiece Muhammad","muhammadacademy@msn.com","Unavailable website
http://muhammadislamicacademy.com","",2003,"Prek-12th","$3000-$4999","No","","","No","https://www.facebook.com/MuhammadIslamicAcademySTL/","","","","","",88,38.6595709,-90.2153623
89,"Universal Academy Islamic School (UAIS)","(816) 965-0186","10515 Grandview Rd, Kansas City, MO 64137","Kansas City","Missouri","Prek-12th","United States","Victorie Hollwell","zazlan.uais@gmail.com","http://uaiskc.org/ (unable to open website)",80,1989,"Prek-12th","$0-$2999","Yes","financial aid","","No","","","","","","",89,38.93519060000001,-94.5402567
90,"Academy of Greatness and Excellence","(201) 836-2555","110 Mt Vernon St, Ridgefield Park, NJ 07660","Ridgefield Park","New Jersey","Prek-12th","United States","Iman ElDessouky","principal@agenj.com","http://www.agenj.com",108,2013,"Prek-12th","$0-$2999","Yes","hot lunch, scholarship, science lab, uniforms
after school program, Orphan Student Scholarship, financial aid, AGE STEM program","","Yes","https://www.facebook.com/agetoday","https://www.instagram.com/explore/locations/390275673/united-states/ridgefield-park-new-jersey/academy-of-greatness-excellence/?hl=en","","","","",90,40.85683909999999,-74.0230809
91,"Al-Ghazaly Elementary School","(201) 433-5002","17 Park St, Jersey City, NJ 07304","Jersey City","New Jersey","Prek-8th","United States","Farhat Ali","AlGhazalyschoolincjc@gmail.com","Unable to reach website
http://alghazalyschool.org","196 (Niche)",1984,"Prek-8th","$0-$2999","No","","","No","https://www.facebook.com/AlGhazalySchool/","https://www.instagram.com/alghazalyschool/?hl=en","","","","",91,40.7168796,-74.06952969999999
92,"Al-Ghazaly Junior/Senior High School (IEF Schools)","(862) 377-0876","970 Black Oak Ridge Rd, Wayne, NJ 07470","Wayne","New Jersey","9th-12th","United States","Hayat Jaludi
Nada Samo","","http://alghazalyhs.com
https://www.iefschools.org/","","","9th-12th","$0-$2999","No","","","No","https://www.facebook.com/Alghazalyjrsrhigh/","","","","","",92,40.9726464,-74.2708576
93,"Al-Hikmah Elementary School (IEF Schools)","(973) 790-4700","278 N 8th St, Prospect Park, NJ 07508","Prospect Park","New Jersey","Prek-6th","United States","Hayat Jaludi
Hiyam Rimawi","principal@alhikmahschool.com","https://www.iefschools.org/",280,"","Prek-6th","$0-$2999","No","","","No","https://www.facebook.com/AlHikmahElementarySchool/","","","","","",93,40.9325552,-74.17220859999999
94,"An-Noor Academy and Darul-Huda Institute","(732) 667-5300","1000 Hoes Ln, Piscataway, NJ 08854","Piscataway","New Jersey","Prek-12th","United States","Nora Salem","info@annooracademy.com","http://www.annooracademy.com/",330,2000,"Prek-12th","$5000-$6999","Yes","science lab, uniforms, sibling disc, staff disc; financial aid
Tahfeez program (Darul Huda), extra curricular, Early Childhood (ECL), scholarships","","Yes","https://facebook.com/annooracademyNJ","","https://twitter.com/annooracademyNJ","","","",94,40.529592,-74.4685226
95,"Badr School","(201) 435-1075
(201) 435-1921","539 Bergen Ave, Jersey City, NJ 07304","Jersey City","New Jersey","Prek-8th","United States","Heba Abdel Kader","badrschool.a@gmail.com","https://www.badrschool.org/","","","Prek-8th","$0-$2999","Yes","meals program","","Yes","https://www.facebook.com/badrislamicschool/","","","","","",95,40.7191759,-74.0748531
96,"Darul Arqam School","(732) 238-0038","8 Thomas St, South River, NJ 08882","South River","New Jersey","Prek-12th","United States","Mareeya Agheem​","admin@darularqam.org","http://www.darularqam.org/",220,1997,"Prek-12th","$5000-$6999","Yes","science lab, uniforms, Islamic Studies Dual Degree program, extracurricular activities, Model UN, Science and Math Olympiad, hot lunch","","Yes","http://www.facebook.com/darularqam","","","","","",96,40.4513517,-74.3828292
97,"ICOB Academy","(732) 583-2031","205 NJ-35, Keyport, NJ 07735","Cliffwood Beach","New Jersey","Prek-6th","United States","Afsar Gul","icoba.office@gmail.com","https://www.icobnj.org/icobacademy/",46,1998,"Prek-6th","$3000-$4999","No","hot lunch,  uniforms, sibling disc","","Yes","https://www.facebook.com/ICOB-Academy-130163210771605/?ref=aymt_homepage_panel","","","","","",97,40.4503797,-74.2383717
98,"Islamic Academy of Burlington County","(609) 531-2206","613 Sunset Rd, Burlington, NJ 08016","Burlington","New Jersey","Prek-12th","United States","Muhammad Zaki","islamicacademyburlingtoncounty@gmail.com","http://www.islamicabc.com",84,2008,"Prek-12th","$3000-$4999","No","science lab, uniforms, sibling disc","","No","","","","","","",98,40.0476306,-74.8623635
99,"Islamic School Of Trenton","(609) 695-9900","25 Oxford St, Trenton, NJ 08638","Trenton","New Jersey","K-12th","United States","","admin@islamicschooloftrenton.org","http://islamicschooloftrenton.org","",2001,"K-12th","$3000-$4999","No","enrichement courses, financial aid,","","Yes","https://www.facebook.com/islamicschooloftrenton","","","","","",99,40.2287121,-74.7585203
100,"Madrastu Ahlis Sunnah","(973) 672-4124","215 N Oraton Pkwy, East Orange, NJ 07017","East Orange","New Jersey","Prek-12th","United States","Brother Elijah (no longer principal)
Sister Gehan","gelgaaly@thesunnah.org","http://ahlusunnahschool.org","","","Prek-12th","$0-$2999","No","","","No","https://www.facebook.com/IslamicCenterofAmerica","","https://mobile.twitter.com/IcoaNj","","","",100,40.7651251,-74.2059179
101,"Miftaahul Uloom Academy","(201) 223-9920","501 15th St, Union City, NJ 07087","Union City","New Jersey","Prek-12th","United States","Khuloud Jaludi","info@muanj.org","http://www.muanj.org/",120,1996,"Prek-12th","$5000-$6999","Yes","hot lunch, scholarship, uniforms, sibling disc, staff disc; financial aid
Quran recitation program (Nuraniyah Training), after school program,","","Yes","https://business.facebook.com/miftaahululoomacademy/?business_id=119591585419348","https://www.instagram.com/muanj_org/","https://twitter.com/muanj_org","","","",101,40.7615061,-74.0366679
102,"Noble Leadership Academy","(973) 685-2550","1-30 Summit Ave, Fair Lawn, NJ 07410","Fair Lawn","New Jersey","Prek-12th","United States","Amanny Khattab","amannyk@noblela.org","http://www.noblela.org/",350,2009,"Prek-12th","$5000-$6999","In-progress","hot lunch,science lab, uniforms, sibling disc,  financial aid
Technology, Art, STEM, Dual enrollment classes, extracurricular activities, internships, reading and writing club,","","Yes","https://www.facebook.com/NobleLeadershipAcademy","https://www.instagram.com/nobleleadership/","","","","",102,40.9221369,-74.1194539
103,"Pillars Preparatory Academy","(732) 390-4200","34 Charles St, South River, NJ 08882","South River","New Jersey","Prek-12th","United States","abir.catovic@pillarsprep.com","","http://www.pillarsprep.com",150,2015,"Prek-12th","$7000-$8999","Yes","hot lunch, uniforms, sibling disc. science lab
Art, Early Childhood program, college counseling,","","Yes","http://www.facebook.com/PillarsPrep/","https://www.instagram.com/pillarsprep/?hl=en","","","","",103,40.4475791,-74.3780467
104,"Quba School & Islamic Center","(856) 870-8170","1311 Haddon Ave, Camden, NJ 08103","Camden","New Jersey","","United States","","qubaislamiccenter@hotmail.com","https://www.islamicfinder.org/world/view-place/575/?fbclid=IwAR1O8uraiz0GX_pGy7aLFZwgIv2KEt6-RhRNY74L4TRtrAlUx6Y6q32MZSo#google_vignette","",1985,"","","","","","","https://www.facebook.com/qubaislamiccenter/","https://www.instagram.com/quba.school.islamic/","https://twitter.com/qubaschool","","","",104,39.9311558,-75.1017433
105,"Rising Star Academy","(201) 758-5590","4613 Cottage Pl, Union City, NJ 07087","Union City","New Jersey","Prek-12th","United States","Hala Shehadeh","shehadehh@aol.com","https://www.rsanj.org/",175,2009,"Prek-12th","$5000-$6999","Yes","National Honor Society, Sciene Olympiad, Debate, Model United Nations, Athletics, Spelling Bee, Early Childhood programs","","Yes","https://www.facebook.com/pages/category/Elementary-School/Rising-Star-Academy-PreK-12th-Grade-Islamic-School-in-New-Jersey-163076463756450/","https://www.instagram.com/rsa_nj/?hl=en","https://twitter.com/rising_star_nj","","","",105,40.7812446,-74.02344819999999
106,"Al Madrasa Al Islamiyah","(718) 567-3334","5224 3rd Ave, Brooklyn, NY 11220","Brooklyn","New York","Prek-8th","United States","Amateka Morgan","almadrasanyc@gmail.com","https://www.almadrasaalislamiyanyc.com/
Unable to access website",193,1987,"Prek-8th","$0-$2999","No","","","No","https://www.facebook.com/almadrasaalislaimiya","https://www.instagram.com/al_madrasa_al_islamiya/","","","","",106,40.6462755,-74.0165714
107,"Al Noor Elementary and Intermediate School","(718) 768-7181","675 4th Ave, Brooklyn, NY 11232","Brooklyn","New York","Prek-12th","United States","Abdulhakeem Alhasel","office@alnoornyc.org","https://www.alnoornyc.org/","580 (website)",1994,"Prek-12th","$5000-$6999","Yes","Hot lunch and breakfast, uniform, Humanitarian Club, Science Olympiad, Debate club, Youth Fitness Sports Program, Girls Who Code, Chess Club, Big Sister, Little sister Club, Interfaith Club, HOSA, Future health professionals,News letter club, Book Club, Engineering Club, Drama Club, Math Club, Performing Arts, Student Leadership Team","","Yes","https://www.facebook.com/AlNoorSchoolNYC/","https://www.instagram.com/explore/locations/1023461759/united-states/brooklyn-new-york/al-noor-school/","","","","",107,40.6629007,-73.9949859
108,"Al Hidaya Learning","(518) 344-4667","293 Troy-Schenectady Rd, Latham, NY 12110","Latham","New York","Prek-8th","United States","Imam Yacine Boudjema","Learning@al-hidaya.org","https://sites.google.com/al-hidaya.org/learning/home",25,2023,"Prek-8th","$0-$2999","Yes","scholarship,uniforms,","","Yes","https://www.facebook.com/AlHidayaCenterLatham","https://www.instagram.com/al_hidaya_center/","","","","",108,42.7430495,-73.7432578
109,"Al-Ihsan Academy (formerly Islamic Elementary School)","(718) 322-3154","130-08 Rockaway Blvd, Queens, NY 11420","South Ozone  Park","New York","K-12th","United States","Shaykh Rafeek Mohamed","rafeek.mohamed@ihsanacademy.org","http://www.ihsanacademy.org/","435
Website: 514",1989,"K-12th","$0-$2999","In-progress","breakfast, hot lunch, scholarship, uniform, transportation, robotics club, debate club, soccer club, art club, scholarships","","Yes","https://www.facebook.com/alihsan89","https://www.instagram.com/alihsanacademyny/","https://twitter.com/alihsan11","","","",109,40.6746943,-73.80818579999999
110,"Al-Madinah School","(718) 222-4986","383 3rd Ave, Bronx, NY 10451","Brooklyn","New York","Prek-12th","United States","Zenab El Kady
Ahmed Jammoudy
Farhana Masood (Middle School)","info@almadinah-school.com","http://almadinah-school.com","",2000,"Prek-12th","$5000-$6999","Yes","afterschool programs, high school early graduation program, National Honor Society,","","Yes","https://www.facebook.com/almadinahschoolinc","https://www.instagram.com/almadinahschoolinc/","https://twitter.com/AlMadinah_Elem","","","",110,40.8116822,-73.92666
111,"Al-Rasheed Academy","(716) 822-0440","Buffalo, NY 14218","Lackawanna","New York","Prek-12th","United States","Amin ul Islam
Anwar Al-Kalai","principal@alrasheedacademy.org
aalkalai@alrasheedacademy.org","http://www.alrasheedacademy.org/",65,2009,"Prek-12th","$0-$2999","In-progress","sibling disc,financial aid","","Yes","https://www.facebook.com/Alrasheedacademy.org/","https://www.instagram.com/alrasheedacademy/?hl=en","","","","",111,42.8168447,-78.83260159999999
112,"Annur Islamic School","(518) 395-9866","2195 Central Ave, Schenectady, NY 12304","Schenectady","New York","Prek-12th","United States","SOHAIB CHEKIMA","aisprincipal@annurislamicschool.org","http://www.annurislamicschool.org",142,1991,"Prek-12th","$0-$2999","Yes","financial aid
social and emotional learning, physical education and martial art, tarbiyah program, uniform","","No","https://m.facebook.com/pg/annurislamicschool/photos/","https://www.instagram.com/annurislamicschool_/","https://mobile.twitter.com/schoolannur","","","",112,42.7618248,-73.881062
113,"Welcome to Clara Muhammad School, Queens","(646) 645-9531","103-02 Northern Blvd, Queens, NY 11368","Corona","New York","K-12th","United States","Shirley Sharifa Dye","scmsq.edu@gmail.com","https://www.claramuhammadschoolqueens.com/","",1980,"K-12th","$0-$2999","No","computer science, culinary arts, computer technology profiencency certification, intensive college prep program,","","No","https://ne-np.facebook.com/william.kareem.1","","","","","",113,40.7573712,-73.86547589999999
114,"Clara Muhammad School","(718) 783-1279","120 Madison St, Brooklyn, NY 11216","Brooklyn","New York","Prek-8th","United States","Imam Adib Rashid","","http://www.cmsbrooklyn.org/","",1934,"Prek-8th","$0-$2999","No","","","No","","","","","","",114,40.6841338,-73.95444499999999
115,"Cordoba House Sunday School","(646) 750-0324","305 W Broadway, New York, NY 10013","New York","New York","Prek-12th","United States","Naz Georgas","naz@cordobahouse.com","http://cordobahouse.com/",65,2015,"Prek-12th","$0-$2999","No","","","Yes","https://www.facebook.com/cordobahousenyc","","https://twitter.com/cordoba_house","","","",115,40.721908,-74.004937
116,"Crescent School","(516) 292-1787","130 Front St, Hempstead, NY 11550","Hempstead","New York","Prek-12th","United States","Iffat Ahmed","principal@crescenthighschool.com","https://crescentk12.org/","",1991,"Prek-12th","$0-$2999","Yes","","","Yes","https://m.facebook.com/profile.php?id=389236844565035&__tn__=C-R","","","","","",116,40.7038876,-73.63109089999999
117,"Darul Uloom Al Madania  (Boarding School for Girls and Boys - Separate Campuses)","(716) 892-2606","182 Sobieski St, Buffalo, NY 14212","Buffalo","New York","Prek-11th","United States","Faisal Ansari","office@madania.org","https://madania.ad-din.site/","",1994,"Prek-11th","$0-$2999","No","","","Yes","","","","","","",117,42.8991363,-78.8330567
118,"El-Ber Islamic School","(718) 274-9060","25-42 49th St, Queens, NY 11103","Long Island City","New York","Prek-5th","United States","","office@elberschool.org","https://www.elberschool.org/","",1997,"Prek-5th","$5000-$6999","No","","","No","","","","","","",118,40.7635977,-73.90561989999999
119,"Hamza Academy","(516) 285-1440","202 Stuart Ave, Valley Stream, NY 11580","Valley Stream","New York","Prek-4th","United States","Asma Khan","principal@hamzaacademy.org","http://www.hamzaacademy.com",90,2001,"Prek-4th","$0-$2999","In-progress","sibling disc
ELA","","No","https://www.facebook.com/HamzaAcademyNewyork/","https://www.instagram.com/hamzaacademy_valleystream/?hl=en","","","","",119,40.6858227,-73.7161623
120,"Ideal Islamic School","(718) 728-5307","31-29 12th St, Queens, NY 11106","Astoria","New York","Prek-7th","United States","Khurshid Khan","info@idealislamicschool.org","http://idealislamicschool.org/","",1997,"Prek-7th","$0-$2999","No","","","No","https://www.facebook.com/people/Ideal-Islamic-School/100059758875709/","https://www.instagram.com/ideal_islamic_school/","","","","",120,40.7679662,-73.9338518
121,"Ihsan School of Excellence","(315) 472-5040","1406 Park St, Syracuse, NY 13208","Syracuse","New York","Prek-8th","United States","Emily Reilly","info@ihsanschool.org","http://ihsanschool.org",84,2000,"Prek-8th","$0-$2999","In-progress","hot lunch, scholarship, science lab, uniforms, sibling disc
transportation","","No","https://www.facebook.com/ihsanschool/","","","","","",121,43.0683288,-76.1567235
122,"Islamic Cultural Center School","(212) 722-1838","222 E 97th St, New York, NY 10128","New York","New York","Prek-8th","United States","Khadijah Jean Pryce","iccschool96@gmail.com","https://www.iccschooleast96.org/",77,2011,"Prek-8th","","In-progress","hot lunch, science lab, uniforms, sibling disc, 
Middle School Counseling, Summer STEAM program,","","No","https://www.facebook.com/pages/Islamic-Cultural-Center-School/196064180457193","","","","","",122,40.78545870000001,-73.9485435
123,"Islamic Leadership School","(718) 825-1039","2000 Westchester Ave, Bronx, NY 10462","Bronx","New York","1st -12th","United States","Moussa Drammeh","ICCNAI@aol.com","No website or social media available","","","1st -12th","","","","","","","","","","","",123,40.8333986,-73.8575204
124,"MDQ Academy","(631) 665-5036","1725 Brentwood Rd, Brentwood, NY 11717","Brentwood","New York","Prek-12th","United States","Atia Pasha","apasha@mdqacademy.org","http://www.mdqacademy.org",452,2003,"Prek-12th","$5000-$6999","Yes","hot lunch, scholarship, science lab, uniforms, sibling disc, financial aid, college counseling","","Yes","https://www.facebook.com/MDQAcademy/","https://twitter.com/MDQAcademy","","","","",124,40.7735886,-73.24174959999999
125,"Miraj Islamic School","(718) 816-6161","307 Victory Blvd, Staten Island, NY 10301","Staten Island","New York","Prek-12th","United States","","mirajschool@mirajschool.org","Unavailable website
https://www.mirajschool.org/","",1998,"Prek-12th","$0-$2999","No","","","No","https://www.facebook.com/mirajislamicschool","","https://twitter.com/mirajschool","","","",125,40.63484529999999,-74.0859584
126,"Razi School","(718) 779-0711","55-11 Queens Blvd, Flushing, NY 11377","Woodside","New York","Prek-12th","United States","Seyed Hesam Karimi","contact@razischool.org","http://razischool.org","","","Prek-12th","$5000-$6999","No","Art contest, LEP & ESL, uniform, afterschool programs","","No","https://www.facebook.com/RaziSchoolNYC/","https://www.instagram.com/therazischool/","","","","",126,40.7425712,-73.90961970000001
127,"The Crescent Academy","(607) 729-3431","1 Endicott Ave, Johnson City, NY 13790","Johnson City","New York","Prek-5th","United States","Sister Amber Smith","info@thecrescentacademy.org","https://thecrescentacademy.org/","",2006,"Prek-5th","$0-$2999","No","","","No","https://www.facebook.com/thecrescentacademy/?fref=ts","","","","","",127,42.111948,-75.9493457
128,"The Islamic Academy for Peace","(978) 975-7335","125 Oakland Ave, Methuen, MA 01844","Methuen","Massachusetts","Prek-8th","United States","Nadjette Lazzouni","principal@tiapeace.org","http://www.tiapeace.org",81,2001,"Prek-8th","$5000-$6999","Yes","hot lunch, scholarship, science lab, uniforms, sibling disc, staff disc; financial aid","","No","https://www.facebook.com/tia4peace/","https://www.instagram.com/tia4peace/","","","","",128,42.7198388,-71.192543
129,"Wellspring Elementary","(718) 721-3523","90-20 191st St, Queens, NY 11423","Queens","New York","Prek-12th","United States","Jamuyah Jones, Ed.D. Shareefa Khan","info@TheWellspringSchools.org","https://www.thewellspringschools.org/",100,2011,"Prek-12th","$7000-$8999","Yes","sibling disc","","Yes","https://www.facebook.com/WellspringK12","https://www.instagram.com/thewellspringschools/","","","","",129,40.7132376,-73.7696026
130,"Westfall Academy","(585) 442-0120","727 Westfall Rd, Rochester, NY 14620","Rochester","New York","Prek-6th","United States","Raqshinda Khan","raqshinda.khan@westfallacademy.org","https://www.westfallacademy.org",107,"","Prek-6th","$3000-$4999","No","hot lunch,uniforms,","","Yes","https://www.facebook.com/westfallacademy/","https://www.instagram.com/westfallacademy/?hl=en","https://twitter.com/westfallacademy","","","",130,43.114386,-77.6021387
131,"Al-Huda Academy","(919) 572-9500","5104 Revere Rd, Durham, NC 27713","Durham","North Carolina","Prek-7th","United States","Zainab Abdul-Qaabidh","zqaabidh@alhudaacademy.net","http://www.alhudaacademy.net/",72,2010,"Prek-7th","$3000-$4999","No","hot lunch, scholarship, science lab, sibling disc,financial aid","","No","https://www.facebook.com/alhudaacademyNC/","","","","","",131,35.8945357,-78.91127519999999
132,"Charlotte Islamic Academy","(704) 900-0255","N Tryon St, Charlotte, NC 28213","Charlotte","North Carolina","","United States","Mirza Azim Beg
Abdelhamid Salha","Principal@ciacademy.us","http://www.ciacademy.us/",161,2007,"","$3000-$4999","Yes","scholarship, science lab, uniforms, sibling disc","","No","https://www.facebook.com/CharlotteIslamicAcademy/","","","","","",132,35.2987555,-80.7539625
133,"Al Ihsan School","(216) 676-5006","4600 Rocky River Dr, Cleveland, OH 44135","Cleveland","Ohio","Prek-12th","United States","Maysa Jadallah M.Ed","info@alihsanschools.org","https://alihsanschool.net/","",2001,"Prek-12th","$5000-$6999","No","","","Yes","https://www.facebook.com/AlIhsanSchoolOfExcellence","","","","","",133,41.430411,-81.8252541
134,"Avicenna Preparatory School","(614) 698-2001","90 Village Pointe Dr, Powell, OH 43065","Powell","Ohio","K-8th","United States","Shamsa B. Ali","info@avicennaprep.org","http://www.avicennaprepschool.com",49,2016,"K-8th","$3000-$4999","In-progress","uniforms
international baccalaureate, foreign languages,","","No","","","","","","",134,40.1599144,-83.083049
135,"Dayton Islamic School, Inc","(937) 429-9477","3662 E Patterson Rd, Beavercreek, OH 45430","Beavercreek","Ohio","Prek-6th","United States","Shaad Ahmed
Sophia Shalash","sahmed@dis4u.org
sshalash@dis4u.org","http://dis4u.org",89,1995,"Prek-6th","$5000-$6999","No","hot lunch, scholarship, science lab, uniforms, sibling disc, staff disc; financial aid, extracurricular activities","","No","https://www.facebook.com/DaytonIslamicSchool","","https://twitter.com/DaytonIslamicSc","","","",135,39.7260314,-84.0719868
136,"Faith Islamic Academy","(330) 922-9991","152 E Steels Corners Rd, Stow, OH 44224","Cuyahoga Falls","Ohio","Prek-8th","United States","Nasser Razek","secretary@faithislamicacademy.org","https://www.fiaschool.org/home","",2000,"Prek-8th","$5000-$6999","","","","Yes","https://www.facebook.com/faithislamicacademy/","","","","","",136,41.1804324,-81.50316409999999
137,"Islamic Academy of Youngstown (IAY)","(234) 719-1606","69 E Avondale Ave, Youngstown, OH 44507","Youngstown","Ohio","Prek-8th","United States","","info@theislamicacademyofyoungstown.com","Website Unvailable 
https://www.theislamicacademyofyoungstown.com/","","","Prek-8th","$5000-$6999","No","","","No","https://www.facebook.com/IAYschool/","","","","","",137,41.066838,-80.6572338
138,"Islamic School of Greater Toledo","(419) 874-3509","25877 Scheider Rd, Perrysburg, OH 43551","Perrysburg","Ohio","Prek-12th","United States","Amy Rahal-Shelton","info@icgt.org","https://icgt.org/islamic-school-of-greater-toledo/","","","Prek-12th","$0-$2999","Yes","Weekend school, Quran study class","","Yes","https://www.facebook.com/ICGToledo/","https://www.instagram.com/icgtoledo/?hl=en","https://twitter.com/icgtoledo?ref_src=twsrc%5Egoogle%7Ctwcamp%5Eserp%7Ctwgr%5Eauthor","","","",138,41.5282272,-83.6186429
139,"Sunrise Academy","(614) 527-0465","5657 Scioto Darby Rd, Hilliard, OH 43026","Hilliard","Ohio","Prek-12th","United States","Khalid Kebbati","info@sunriseacademy.net","ttp://www.sunriseacademy.net",540,1996,"Prek-12th","$7000-$8999","In-progress","hot lunch, scholarship, uniforms, Edchoice financial aid","","No","https://www.facebook.com/sunriseacademy/","","","","","",139,40.0312016,-83.1675381
140,"Universal Muslim Academy","(513) 421-0700","2232 Stratford Ave, Cincinnati, OH 45219","Cincinnati","Ohio","Prek-8th","United States","M.C.Mortada","admin@cincy-uma.com","http://cincy-uma.com/",40,2013,"Prek-8th","$5000-$6999","No","hot lunch, scholarship, uniforms, sibling disc,  financial aid","","Yes","https://www.facebook.com/CincyUMA/","","","","","",140,39.1240041,-84.52280329999999
141,"Mercy School Institute","(405) 748-5500","14001 N Harvey Ave, Edmond, OK 73013","Edmond","Oklahoma","Prek-12th","United States","Buthiana Jwayyed","mercyschoolokc@gmail.com","http://www.mercyschool.com",300,1998,"Prek-12th","$5000-$6999","Yes","STEM","","Yes","https://www.facebook.com/mercyschoolinstitute/","","","","","",141,35.6126189,-97.5190765
142,"Peace Academy","(918) 627-1040","4620 S Irvington Ave, Tulsa, OK 74135","Tulsa","Oklahoma","Prek-12th","United States","Laura Agha
Nuredin Giayash","doit@patulsa.org","http://patulsa.org",193,1990,"Prek-12th","$5000-$6999","Yes","hot lunch, scholarship, science lab, uniforms, sibling disc, financial aid, Quran, Aqida, Fiqh, and Akhlaq studies, Tarbiyah/Character Education","","No","https://www.facebook.com/PeaceAcademyTulsa","","","","","",142,36.0967408,-95.912017
143,"Academy of Essential Knowledge Islamic Elementary/High School","(215) 763-1601","1546 N 27th St, Philadelphia, PA 19121","Philadelphia","Pennsylvania","K-12th","United States","Isa Abdulmateen","essentialknowledge@mail.com","Unavailable website","","","K-12th","$0-$2999","","","","","","","","","","",143,39.9796337,-75.1794833
144,"Al Noor Islamic Academy","(570) 991-6107","Wilkes-Barre, PA 18705","Wilkes Barre","Pennsylvania","Prek-6th","United States","Sh. Khalid Almaghayreh
Alia Muhammad","info@anianepa.org","http://www.anianepa.org/",50,2010,"Prek-6th","$3000-$4999","In-progress","hot lunch, sibling disc, staff disc; financial aid","","No","https://www.facebook.com/pages/category/Private-School/Al-Noor-Islamic-Academy-1472649212993589/","","","","","",144,41.2737475,-75.8359645
145,"Al-Aqsa Islamic Academy","(215) 765-6660","1501 Germantown Ave, Philadelphia, PA 19122","Philadelphia","Pennsylvania","Prek-12th","United States","Shireen Hammoudeh
Chukri Khorchid","Crumpton786@aol.com","https://www.aqsaacademy.org/ 
http://www.alaqsaislamicacademy.org",227,1996,"Prek-12th","$3000-$4999","Yes","hot lunch, scholarship, science lab, uniforms, sibling disc,financial aid","","No","https://www.facebook.com/islamicschoolAqsa/photos","https://www.instagram.com/alaqsaislamicschool/?igshid=Y2ZmNzg0YzQ%3D","","","","",145,39.9737893,-75.1415822
146,"Iqra Academy","(484) 221-4302
(484) 393-1758","2490 General Armistead Ave #304, Trooper, PA 19403","Phoenixville
Trooper","Pennsylvania","Prek-8th","United States","Elizabeth Tonnon","etonnon@iqrainstitute.org","https://www.iqrainstitute.org/",45,2016,"Prek-8th","$7000-$8999","No","uniforms, sibling disc, staff disc","","Yes","https://www.facebook.com/iqrains/","Unavailable Page
https://www.instagram.com/iqrainst/","https://twitter.com/iqrains","","","",146,40.1230432,-75.4018565
147,"MALV Islamic Academy","(610) 799-6223","1988 Schadt Ave, Whitehall, PA 18052","Whitehall","Pennsylvania","Prek-8th","United States","Nahed El-Seify","nelseify@manarahfoundation.org","https://malv.org/",140,2004,"Prek-8th","$0-$2999","No","","","Yes","https://www.facebook.com/malv1988/","","","","","",147,40.6373987,-75.5068348
148,"Nelson's Academy","(215) 747-0321
(215) 921-4960","5520 Baltimore Ave, Philadelphia, PA 19143","Philadelphia","Pennsylvania","K - 9th","United States","Trina Abdullah","admin@nelsonsacademy.com","Website unavailable 
http://nelsonsacademy.com","",2000,"K - 9th","$0-$2999","No","","","No","","","","","","",148,39.94694020000001,-75.2344769
149,"Quba Institute","(215) 473-8589","4637 Lancaster Ave, Philadelphia, PA 19131","Philadelphia","Pennsylvania","K-8th","United States","Sheikh Anwar Muhaimin, CEO","info@qubainstitute.com","https://www.qubainc.org/","",1938,"K-8th","$3000-$4999","No","","","Yes","https://www.facebook.com/qubainstitute/","","","","","",149,39.971151,-75.2148946
150,"Tarbiyatul Ilm Academy","(267) 335-4782","21 E School House Ln, Philadelphia, PA 19144","Philadelphia","Pennsylvania","Prek-8th","United States","Khadijah Abdullah","info@tialearning.org","https://www.tialearning.org/",70,2009,"Prek-8th","$7000-$8999","In-progress","","","No","","https://www.instagram.com/tiaeducation/?hl=en","","","","",150,40.0349014,-75.1724804
151,"Villanova Academy for Honor Studies","(610) 520-9624","1860 Montgomery Ave, Villanova, PA 19085","Villanova","Pennsylvania","Prek-6th","United States","Teresa Hadjali","principal.vahs@gmail.com","https://sites.google.com/a/fiesite.org/vahs3/about-us","",1999,"Prek-6th","$7000-$8999","Yes","After school clubs, Quran competitions, sibling discount, technology program","","Yes","https://www.facebook.com/villanovaacademyforhonorstudies/","","","","","",151,40.0484056,-75.3395901
152,"Islamic School Of Rhode Island","(401) 821-8700","840 Providence Street","West Warwick","Rhode Island","Prek-8th","United States","Muhammad Ahmed","principal@isrionline.org","https://www.iisri.org/ 
http://www.myisri.org",129,2004,"Prek-8th","$5000-$6999","Yes","scholarship,uniforms, hifz program, financial aid, sibling discount","","Yes","https://www.facebook.com/Islamic-School-of-Rhode-Island-ISRI-113835244404838/","","https://twitter.com/IslamicSchoolRI","","","",152,,
153,"As-Sabeel Academy","(864) 674-7456","1601 Clement Rd, Greer, SC 29650","Greer","South Carolina","Prek-8th","United States","Shiam Harsho","sharsho@sabeelacademy.com","http://www.sabeelacademy.com",136,2008,"Prek-8th","$3000-$4999","Yes","hot lunch, uniforms, sibling disc, financial aid, international students, after school clubs, tajweed club","","No","https://www.facebook.com/sabeel.academy","","https://twitter.com/SabeelAcademySC?lang=en","","","",153,34.9195965,-82.2720381
154,"Clara Muhammad School","(803) 252-9477","5119 Monticello Rd, Columbia, SC 29203","Columbia","South Carolina","Prek-8th","United States","Mary J. Hamin","","https://masjidassalaamsc.weebly.com/",21,"","Prek-8th","$0-$2999","","","","","","","","","","",154,34.0510351,-81.0452257
155,"Islamic Academy of Columbia","(803) 462-9904","2304 Kneece Rd, Columbia, SC 29223","Columbia","South Carolina","Prek-10th","United States","Adnan Omar","Louai_71@yahoo.com","http://iacsc.com",81,"","Prek-10th","$0-$2999","","","","","","","","","","",155,34.055898,-80.9440009
156,"Annoor Academy of Chattanooga","(423) 894-1637","2533 Gunbarrel Rd, Chattanooga, TN 37421","Chattanooga","Tennessee","Prek-8th","United States","Amany Shourbaji","principal@annooracademy.org","https://www.annooracademy.org/",60,2009,"Prek-8th","$5000-$6999","In-progress","scholarship, uniforms, sibling disc,financial aid, extra curriculars","","No","https://www.facebook.com/AnnoorAcademyCHA/","","","","","",156,35.0487189,-85.1465636
157,"Clara Mohammed School","(615) 752-5809
(615) 485-3488
(615) 255-5898","3620 Buena Vista Pike, Nashville, TN 37218","Nashville","Tennessee","Prek-8th","United States","Mahasin Abdullah","Nashville","http://www.claramohammed.education/","",1971,"Prek-8th","$0-$2999","","","","","https://m.facebook.com/Clara-Mohammed-School-of-Nashville-136502103097684/","","","","","",157,36.2139926,-86.8166529
158,"Islamic Center of Murfreesboro Academy, ICM","615) 962-8867","862 Middle Tennessee Blvd, Murfreesboro, TN 37129","Murfreesboro","Tennessee","2 years old-3rd","United States","","admin@icmacademy.org","https://www.icmacademy.org/","","","2 years old-3rd","","","Two-year old program","","","","","","","","",158,35.826839,-86.39566599999999
159,"Al Hedayah Academy","(817) 449-2626
(817) 265-6667","8601 Randol Mill Rd, Fort Worth, TX 76120","Fort Worth","Texas","Prek-11th","United States","Michelle Nusrallah","alhedayahacademy2@gmail.com","https://www.alhedayahacademy.com/","","","Prek-11th","$0-$2999","","","","","https://www.facebook.com/AlHedayahAcademy/","","","","","",159,32.7683291,-97.1671992
160,"Al Nur School","(888) 885-6688","15203 Bellaire Blvd, Houston, TX 77083","Houston","Texas","Prek-7th","United States","Howaida Ahmed","info@alnurschool.com","http://alnurschool.com","","","Prek-7th","$0-$2999","No","financial aid","","No","","","","","","",160,29.7003394,-95.6533128
161,"Al-Hadi School","(832) 617-8363","14855 Richmond Ave., Houston, TX 77082","Houston","Texas","K -12th","United States","Seyed Alireza Abedi","alhadi@alhadi.com","http://alhadi.com","",2002,"K -12th","$0-$2999","Yes","","","Yes","https://www.facebook.com/Alhadischool/","","","","","",161,29.729416,-95.6525733
162,"Ameen Academy","(972) 885-0786","3401 Silverstone Dr, Plano, TX 75023","Plano","Texas","Prek-5th","United States","Shaheen Madni","farina@ameenacademy.org","http://www.ameenacademy.org",25,2014,"Prek-5th","$5000-$6999","No","uniforms","","No","https://www.facebook.com/AmeenAcademy/","","","","","",162,33.0424822,-96.7368328
163,"Ameen People Montessori","(817) 543-2630","614 Hiett Ave, Arlington, TX 76010","Arlington","Texas","Prek-7th","United States","Samina Ameen","apmdirector@aol.com","http://ameenpeople.org",42,"","Prek-7th","$0-$2999","","","","","https://www.facebook.com/ameenpeople/","","","","","",163,32.7230105,-97.1139456
164,"Darul Arqam School Southeast","(713) 948-0094","8830 Galveston Rd, Houston, TX 77034","Houston","Texas","Prek-7th","United States","Farnaz Hassan","darularqamsoutheast@hotmail.com","http://www.southeast.darularqamschools.org/",68,1992,"Prek-7th","$3000-$4999","Yes","uniforms","","Yes","https://www.facebook.com/DUASoutheast/","","","","","",164,29.6316073,-95.20742159999999
165,"Darul Arqam School Southwest","(281) 495-4015","10415 Synott Rd, Sugar Land, TX 77498","Sugar land","Texas","Prek-7th","United States","Rim Mohamed","darularqamsouthwest@gmail.com","http://www.southwest3.darularqamschools.org/",205,1995,"Prek-7th","$3000-$4999","Yes","scholarship, science lab, uniforms, sibling disc","","No","https://www.facebook.com/DarulArqamSouthwest/","","","","","",165,29.6653413,-95.6157784
166,"Hijaz Academy","(281) 564-1004","15001 Beechnut St b, Houston, TX 77083","Houston","Texas","Prek-4th","United States","Noureen Mirza","info@hijazacademy.org","http://www.hijazacademy.org/",50,2010,"Prek-4th","$0-$2999","In-progress","hot lunch, uniforms, sibling disc,financial aid","","No","https://www.facebook.com/HijazAcademyS","","","","","",166,29.6891825,-95.65078369999999
167,"ILM Academy","(713) 464-4720","1209 Conrad Sauer Dr, Houston, TX 77043","Houston","Texas","Prek-6th","United States","Sammy Ali
 Elizabeth Shah","principal@ilmacademy.org","http://www.ilmacademy.org",187,2006,"Prek-6th","$9000-$10999","Yes","hot lunch, scholarship,uniforms, sibling disc,","","Yes","https://www.facebook.com/ilmacademytx","https://www.instagram.com/ilmacademyhtx","https://www.twitter.com/ILM_AcademyTX","","","",167,29.790108,-95.54956700000001
168,"Iman Academy Southwest","(281) 498-1345","6240 S Texas 6, Houston, TX 77083","Houston","Texas","K - 11th","United States","Haleema Goense","southwest@imanacademy.org","http://www.imanacademy.org",525,1996,"K - 11th","$5000-$6999","Yes","hot lunch, scholarship, science lab, uniforms, sibling disc,financial aid, tarbiyah program, extracurricular activities","","Yes","https://www.facebook.com/ImanAcademy","","https://twitter.com/ImanAcademy","","","",168,29.709303,-95.6452923
169,"Islamic Academy of San Antonio","(210) 614-0989
(210) 614-0202","8638 Fairhaven St, San Antonio, TX 78229","San Antonio","Texas","Prek-5th","United States","Musa M. Sadek","IASA@IASAonline.net","http://icsaonline.org/iasa","",1993,"Prek-5th","$0-$2999","Yes","","","Yes","https://www.facebook.com/2005IASA/","https://www.instagram.com/icsaonline/?hl=en","https://mobile.twitter.com/icsaonline","","","",169,29.521497,-98.56326
170,"Palm Tree Academy","(915) 229-2190","143 Paragon Ln, El Paso, TX 79912","El Paso","Texas","Prek-5th","United States","Nichole Orozco-Khamsi","admin@ptacademy.org","http://ptacademy.org/index.html",33,2006,"Prek-5th","$0-$2999","Yes","","","Yes","https://www.facebook.com/ptacademyofelpaso/","","","","","",170,31.8187555,-106.5116705
171,"Peace Academy","(972) 480-0008","331 E Polk St, Richardson, TX 75081","Richardson","Texas","Prek-9th","United States","Ahsan Mohammed","info@worldpeaceacademy.com","No website available
http://peaceacademy.com",229,"","Prek-9th","$0-$2999","No","student discount","","","https://www.facebook.com/ptacademyofelpaso/","","","","","",171,32.9475913,-96.7287208
172,"Qalam Collegiate Academy - (All Girls)","(972) 437-2526","1625 Ferris Rd","Garland","Texas","5th-12th","United States","Fawzia Belal (All girls)","principal@myqca.org
qalamadmin@myqca.org","https://www.myqca.org/",52,2013,"5th-12th","$5000-$6999","Yes","science lab, uniforms, sibling disc, full time hifth program, dual credit, extra curriculars, financial aid, all girls school and all boys school","","Yes","https://www.facebook.com/QalamAcademy/","https://www.instagram.com/qalamcollegiateacademy/?hl=en","https://mobile.twitter.com/myqcaorg","","","",172,,
172,"Qalam Collegiate Academy","(469) 929-9950","4700 14th Street","Plano","Texas","5th-12th","United States","Fawzia Belal (All girls)","principal@myqca.org
qalamadmin@myqca.org","https://www.myqca.org/",52,2013,"5th-12th","$5000-$6999","Yes","science lab, uniforms, sibling disc, full time hifth program, dual credit, extra curriculars, financial aid, all girls school and all boys school","","Yes","https://www.facebook.com/QalamAcademy/","https://www.instagram.com/qalamcollegiateacademy/?hl=en","https://mobile.twitter.com/myqcaorg","","","",172,,
173,"Renaissance Academy","(512) 252-2277","14401 Owen-Tech Blvd, Austin, TX 78728","Austin","Texas","Prek-12th","United States","Dalia Mostafa","raprincipal@racademy.org","http://www.racademy.org",213,2007,"Prek-12th","$7000-$8999","Yes","hot lunch, scholarship, science lab, uniforms, sibling disc, staff disc; financial aid","","No","https://www.facebook.com/racademyaustin/","https://www.instagram.com/renaissanceeducationfoundation/","https://mobile.twitter.com/racademytweets","","","",173,30.4349354,-97.67051099999999
174,"Vanguard International Academy","(817) 274-6444","1600 S Center St, Arlington, TX 76010","Arlington","Texas","","United States","Ibrahim Dremali","alin@viacademy.org","Unavailable website; the website below is for a non-Islamic school in Florida
https://www.vanguardschool.org/",37,2008,"","","In-progress","","","No","https://www.facebook.com/viacademy
https://www.facebook.com/profile.php?id=100064818951340","","","","","",174,32.7186835,-97.1053869
175,"IQRA' ACADEMY","(340) 772-4808","Frederiksted, St Croix 00840, USVI","St. Croix","USVI","Prek-12th","United States","Edney Freeman","information@iqravi.org","https://www.iqraacademyvi.com/",16,1997,"Prek-12th","$3000-$4999","Yes","scholarship, science lab, uniforms, sibling disc, financial aid","","No","https://www.facebook.com/IqraAcademyVI","","http://www.twitter.com/IqraAcademyVI","","","",175,17.7124746,-64.8815352
176,"Iqra Academy of Utah","(801) 964-6470","3990 S 2700 W, West Valley City, UT 84119","West Valley City","Utah","Prek-10th","United States","","iqrautah@gmail.com","https://iqrautah.com/","",2000,"Prek-10th","$0-$2999","No","school uniform, financial aid","","No","https://www.facebook.com/pages/category/Private-School/Iqra-Academy-of-Utah-249846515638/","","","","","",176,40.6842593,-111.9584752
177,"Al-Qalam School of Virginia","(703) 924-6000","6666 Commerce St, Springfield, VA 22150","Springfield","Virginia","Prek-12th","United States","Kulsum Saleh","alqalamcoordinator@gmail.com","http://www.alqalamus.org/","",1998,"Prek-12th","$0-$2999","Yes","Uniforms, clubs,","","No","https://www.facebook.com/pages/category/Private-School/Al-Qalam-Academy-788563737828623/","","","","","",177,38.7799487,-77.17592239999999
178,"Hidayah Academy","(703) 844-0424","20424 Ashburn Village Blvd, Ashburn, VA 20147","Ashburn
Sterling","Virginia","6th-12th","United States","Asmaa Elsayed","info@HidayahAcademy.org","http://www.hidayahacademy.org",55,2018,"6th-12th","$7000-$8999","In-progress","scholarship, science lab, financial aid, afterschool, 100% to 4-year college graduation rate, dual enrollment","","No","https://www.facebook.com/hidayahacademyvirginia/","https://www.instagram.com/hidayahacademy/?igshid=78uoag4rbha","","","","",178,39.0509018,-77.4744545
179,"Manassas Mosque Home Study Group: Islamic Community School","(703) 915-7019","Historic District, 7238 Nathan Ct, Manassas, VA 20109","Manassas","Virginia","Prek-6th","United States","Somayyah Nahidian","snahidian2@gmail.com","https://www.myics.school/",27,2004,"Prek-6th","$0-$2999","No","","","No","https://www.facebook.com/IslamicCommunitySchoolManassas/","https://www.instagram.com/islamiccommunityschool/?hl=en","","","","",179,38.799503,-77.52256
180,"Tawheed Prep School","(804) 344-3350","1202 Oak St, Richmond, VA 23220","Richmond","Virginia","","United States","Mary Abdul-Lateef","principalmary@tawheedprep.org","Limited content loads on website
https://sites.google.com/a/tawheedprep.org/building-world-class-leaders/",37,2007,"","","Yes","hot lunch, scholarship, uniforms,","","No","","","","","","",180,37.5567866,-77.44315689999999
181,"Iqra Academy of Kent","(206) 432-6284","21009 108th Ave SE, Kent, WA 98031","Kent","Washington","","United States","Mizanur Rahman","drmizanurr@yahoo.com","Unable to reach website
http://iqraacademyofkent.org",10,2014,"","","No","uniforms,financial aid","","No","","","","","","",181,47.4137429,-122.1977657
182,"Medina Academy - (Bellevue Campus)","(425) 643-2678","16242 Northup Way, Bellevue, WA 98008","Bellevue","Washington","Prek-6th","United States","Aishah Jalani","aishah.jalani@medinaacademy.org","http://medinaacademy.org","",2015,"Prek-6th","$0-$2999","Yes","","","No","https://www.facebook.com/MedinaAcademy","","https://twitter.com/medinaacademy","","","",182,47.6253432,-122.1224771
182,"Medina Academy - (Redmond Campus)","(425) 643-2678","17550 NE 67th Ct, Redmond, WA 98052","Redmond","Washington","Prek-6th","United States","Aishah Jalani","aishah.jalani@medinaacademy.org","http://medinaacademy.org","",2015,"Prek-6th","$0-$2999","Yes","","","No","https://www.facebook.com/MedinaAcademy","","https://twitter.com/medinaacademy","","","",182,47.6657682,-122.1066887
183,"Clara Muhammad School","(202) 610-1090","Washington, DC 20020","Washington","Washington, D.C.","6th-12th","United States","Samuel Shareef","","No website is avaibale for the Washington location
https://www.cmsmkewi.us/","",1972,"6th-12th","$0-$2999","No","","","No","https://www.facebook.com/cmsmkewi.us/","","","","","",183,38.8641775,-76.98158769999999
184,"Clara Mohammed School","(414) 263-6772","317 W Wright St, Milwaukee, WI 53212","Milwaukee","Wisconsin","K-5th","United States","Basimah Abdullah","info@cmsmkewi.us","https://www.cmsmkewi.us/","",1972,"K-5th","$0-$2999","No","uniform, transportation","","No","https://www.facebook.com/cmsmkewi.us/","","","","","",184,43.0637832,-87.9145183
185,"Guidance Academy","(414) 312-8755","1800 16th Ave, South Milwaukee, WI 53172","South Milwaukee","Wisconsin","Prek-10th","United States","Malika Harizi","admin@guidancemke.org","http://guidancemke.org",125,2016,"Prek-10th","$3000-$4999","Yes","hot lunch, science lab, state voucher, financial aid","","Yes","https://www.facebook.com/guidance.alhuda/","","","","","",185,42.9133939,-87.87346749999999
186,"Madinah Academy of Madison","(606) 888-2021","6501 Watts Rd, Madison, WI 53719","Madison","Wisconsin","Prek-6th","United States","Umar Warsi","principal@mamonline.org","https://mamonline.org/","",2004,"Prek-6th","$0-$2999","No","","","Yes","https://www.facebook.com/madinahacademyofmadison/","","","","","",186,43.0495563,-89.4934731
187,"Salam School - (Middle High)","(414) 282-0504","4707 South 13th Street, Milwaukee, WI 53221","Milwaukee","Wisconsin","","United States","Wanis H. Shalaby","wshalaby@salamschool.com","http://salamschool.com",950,"","","$3000-$4999","Yes","hot lunch","","No","","https://www.instagram.com/salam_school/","https://twitter.com/ismmke","","","",187,42.9589128,-87.92981259999999
187,"Salam School","(414) 744-3837","815 W Layton Ave, Milwaukee, WI 53221","Milwaukee","Wisconsin","","United States","Wanis H. Shalaby","wshalaby@salamschool.com","http://salamschool.com",950,"","","$3000-$4999","Yes","hot lunch","","No","","https://www.instagram.com/salam_school/","https://twitter.com/ismmke","","","",187,42.9565781,-87.9227575
188,"Institute of Knowledge","(909) 595-2401","1009 Vía Sorella, Diamond Bar, CA 91789","Diamond Bar","California","Prek-10th","United States","Abdulrahman Hachache &amp; Imran Ahmed","school@instituteofknowledge.com","Website under maintenance 
http://www.instituteofknowledge.com",235,1999,"Prek-10th","$5000-$6999","Yes","hot lunch, scholarship, science lab, uniforms, sibling disc,  financial aid","","Yes","https://www.facebook.com/IOKDiamondBar/","https://www.instagram.com/iokdiamondbar/","https://twitter.com/iokdiamondbar","","","",188,33.999682,-117.8380572
189,"Muslim Educational Trust - ISMET PK - 5th","(503) 579-6621","10330 SW Scholls Ferry Rd, Tigard, OR 97223","Tigard","Oregon","Prek-12th","United States","Juwairyah Syed","admin@metpdx.org","http://www.metpdx.org",192,1997,"Prek-12th","$7000-$8999","Yes","hot lunch, scholarship, science lab, uniforms, sibling disc,  financial aid","","No","https://www.facebook.com/metpdx93/","https://www.instagram.com/met_pdx/","https://twitter.com/MET_PDX","","","",189,45.4448695,-122.7948209
190,"Muslim Educational Trust - OIA 6th - 12th","(503) 579-6622","10331 SW Scholls Ferry Rd, Beaverton, OR 97008","Tigard","Oregon","","United States","Juwairyah Syed","admin@metpdx.org","http://www.metpdx.org","","","","","","","","","","","","","","",190,45.4468834,-122.7909819
191,"Makkah International Institute","(770) 676-9242","4158 Stone Mountain Hwy a, Lilburn, GA 30047","Lilburn","Georgia","K-12th","United States","Tariq Abdul-Malik","info@makkahinstitute.org","https://www.makkahinstitute.org",37,2020,"K-12th","$0-$2999","In-progress","scholarship, uniforms, sibling disc,","","No","https://www.facebook.com/makkahii","https://www.instagram.com/makkah_institute/","https://twitter.com/institutemakkah","","","",191,33.8350462,-84.07342369999999